originalPlace,interpretedPlace,longitude,latitude,xmin,xmax,ymin,ymax,uncertainty
"TROY, NEW YORK, UNITED STATES","Troy, Rensselaer County, New York, United States",-73.6917851,42.7284117,-73.706463,-73.649259,42.694078,42.795791,3999
"OVER LYING THE SOUTHEND OF STISSING MT.,STISSING, NEW YORK, UNITED STATES","Stissing Mountain, Stanfordville, Pine Plains, Dutchess County, New York, United States, 12581",-73.6926279,41.9564812,-73.69397688,-73.69127892,41.95513222,41.95783018,187
"KEESVILLE, NEAR, AUSABLE CHASM, CLINTON ESSEX CO, NEW YORK, UNITED STATES","Keeseville, Chesterfield, Essex County, New York, United States, 12944",-73.4801348,44.5050479,-73.5115,-73.450014,44.47807,44.531939,3829
"KEESEVILLE, AUSABLE CHASM, ESSEX CO, NEW YORK, UNITED STATES OF AMERICA","Keeseville, Chesterfield, Essex County, New York, United States, 12944",-73.4801348,44.5050479,-73.5115,-73.450014,44.47807,44.531939,3829
"KEESVILLE, AUSABLE CHASM, CLINTON  ESSEX CO, NEW YORK, UNITED STATES","Keeseville, Chesterfield, Essex County, New York, United States, 12944",-73.4801348,44.5050479,-73.5115,-73.450014,44.47807,44.531939,3829
"STILLWATER, WAASHINGTON CO, MINNESOTA, UNITED STATES OF AMERICA","Stillwater, West Lakeland Township, Washington County, Minnesota, United States, 55082",-92.8088443,45.056004,-92.8632101,-92.786142,45.035617,45.080133,3223
"SIERRA DIABLO, HUDSPETH  CULBERSON CO, TEXAS, UNITED STATES OF AMERICA","Sierra Diablo, Culberson County, Texas, United States, 79855",-104.9049435,31.4229024,-104.9062925,-104.9035945,31.42155342,31.42425138,197
"TEQUAMENON BAY, LAKE SUPERIOR, CHIPPEWA CO, MICHIGAN, UNITED STATES","Tahquamenon Bay, Chippewa County, Michigan, United States",-85.0278586,46.4999557,-85.054963,-84.9569807,46.4769711,46.5366763,3295
"Cuise Lamatte, France, France","Cuise-la-Motte, Oise, Hauts-de-France, France, 60350",3.006905,49.386771,2.9694389,3.034374,49.3698486,49.4072569,3028
"FORT CASSIN, A FEW MILES FROM VERGENNES, ON THE EASTERN SHORE OF LAKE CHAMPLAIN, ADDISON CO, VERMONT, UNITED STATES","Fort Cassin Road, Ferrisburgh, Addison County, Vermont, United States, 05456",-73.315348,44.2215735,-73.3246241,-73.3070036,44.2129736,44.229396,1095
"MIDDLEVILLE, HERKIMER CO, NEW YORK, UNITED STATES OF AMERICA","Middleville, Fairfield, Herkimer County, New York, United States",-74.9682114,43.1386807,-74.98218,-74.961114,43.129769,43.1475949,1146
"LOWVILLE, LEWIS CO, NEW YORK, UNITED STATES OF AMERICA","Lowville, Lowville, Lewis County, New York, United States, 13367",-75.4918505,43.786736,-75.506255,-75.4646411,43.774654,43.7982201,1774
"PLATTEVILLE, GRANT CO, WISCONSIN, UNITED STATES OF AMERICA","Platteville, Platteville, Grant County, Wisconsin, United States, 53818",-90.4784621,42.73416,-104.822,-90.429621,40.20755,42.754901,4615
"Trenton Falls, Lewis County, New York, USA","Lewis County, New York, United States",-75.4344727,43.840112,-75.8509141,-75.110681,43.4198151,44.2179209,49356
"Fairfield, New York, United States","Fairfield, Fairfield, Herkimer County, New York, United States, 13406",-74.9132097,43.1372919,-74.91455868,-74.91186072,43.13594292,43.13864088,186
"Mineral Point, Wisconsin, United States","Mineral Point, Mineral Point, Iowa County, Wisconsin, United States, 53565",-90.1798473,42.859997,-90.206058,-90.1575479,42.843788,42.8837761,2799
"Beloit, Wisconsin, United States","Beloit, Rock County, Wisconsin, United States, 53511",-89.0317765,42.5083482,-89.080848,-88.945007,42.495739,42.5685301,4270
"2 Miles Above Dunleith, Illinois, United States","Dunleith Township, Jo Daviess County, Illinois, United States",-90.610943,42.4806547,-90.65671,-90.584959,42.445578,42.5084809,3757
"Near Watertown, New York, United States","Watertown, Watertown, Jefferson County, New York, United States, 13601",-75.909743,43.9725849,-75.948809,-75.854732,43.948989,43.995938,4087
"St. Joseph's Island, Lake Huron, Canada","St. Joseph Island, Algoma District, Ontario, Canada, P0R",-83.9667213,46.2227098,-84.1142656,-83.773011,46.0614529,46.317746,18291
"Pike's Hill, Tennessee, United States","Sawyer Road, Hamilton County, Tennessee, United States, 37377",-85.294191,35.2072815,-85.3136218,-85.2722472,35.1707484,35.2273261,2989
"Rockford, Illinois, United States","Rockford, Rockford Township, Winnebago County, Illinois, United States",-89.0877748,42.2677214,-89.195274,-88.9408549,42.143238,42.33864,14450
"Lebanon, Tennessee, United States","Lebanon, Wilson County, Tennessee, United States",-86.2911024,36.2081098,-86.453643,-86.258839,36.1136959,36.2561479,6068
"Watertown, Jefferson County, New York, United States of America","Watertown, Watertown, Jefferson County, New York, United States, 13601",-75.909743,43.9725849,-75.948809,-75.854732,43.948989,43.995938,4087
"Watertown, New Jersey, United States","Waretown, Ocean Township, Ocean County, New Jersey, United States, 08758",-74.1951395,39.7915084,-74.2098389,-74.1804519,39.7793,39.799096,1514
"4 Miles Below Guttenberg, Illinois, United States","Guttenberg, Clayton County, Iowa, United States, 52052",-91.1029068,42.7899897,-91.1183699,-91.091713,42.768307,42.8121449,2626
"Eagle Point, Near Dubuque, Iowa, United States","Eagle Point, Dubuque, Dubuque County, Iowa, United States, 52001",-90.6445719,42.5347235,-90.64592088,-90.64322292,42.53337452,42.53607248,186
"Middleville, New York, United States","Middleville, Fairfield, Herkimer County, New York, United States",-74.9682114,43.1386807,-74.98218,-74.961114,43.129769,43.1475949,1146
"Marcy, New York, United States","Marcy, Marcy, Oneida County, New York, United States, 13403",-75.2915564,43.1706253,-75.29290538,-75.29020742,43.16927632,43.17197428,186
"Herkimer, Herkimer Co., New York, United States","Herkimer, Herkimer, Herkimer County, New York, United States, 13350",-74.9859889,43.0256259,-75.0227561,-74.9627811,43.015528,43.0459091,2942
"Otsego County, New York, United States","Otsego County, New York, United States",-75.0611147,42.5779779,-75.416932,-74.6306308,42.313949,42.908363,41438
"Carlisle, Cumberland, Pennsylvania, United States of America","Carlisle, Cumberland County, Pennsylvania, United States, 17013",-77.2002745,40.2010241,-77.24664,-77.171095,40.180684,40.219406,3215
"Lowville, New York, United States","Lowville, Lowville, Lewis County, New York, United States, 13367",-75.4918505,43.786736,-75.506255,-75.4646411,43.774654,43.7982201,1774
"Sackett's Harbor, New York, United States","Sackets Harbor, Hounsfield, Jefferson County, New York, United States, 13685",-76.1190929,43.9461707,-76.147676,-76.096871,43.929814,43.9563,2109
"Watertown, New York, United States","Watertown, Watertown, Jefferson County, New York, United States, 13601",-75.909743,43.9725849,-75.948809,-75.854732,43.948989,43.995938,4087
"Watertown, New York  Carlisle, Pennsylvania, United States",NA,NA,NA,NA,NA,NA,NA,NA
"Adams, Jefferson County, New York, United States of America","Adams, Adams, Jefferson County, New York, United States, 13605",-76.0240892,43.8092321,-76.038113,-76.007721,43.801053,43.8216651,1449
"Carlisle, Pennsylvania, United States","Carlisle, Cumberland County, Pennsylvania, United States, 17013",-77.2002745,40.2010241,-77.24664,-77.171095,40.180684,40.219406,3215
"Mineral Point, Iowa County, Wisconsin, United States","Mineral Point, Mineral Point, Iowa County, Wisconsin, United States, 53565",-90.1798473,42.859997,-90.206058,-90.1575479,42.843788,42.8837761,2799
"Pointe aux Baies, Sauk County, Wisconsin, United States","Sauk County, Wisconsin, United States",-89.9253233,43.4066375,-90.3124439,-89.599338,43.145291,43.642234,37144
"Lindley's Hill, Near Lebanon, Tennessee, United States","Lebanon, Wilson County, Tennessee, United States",-86.2911024,36.2081098,-86.453643,-86.258839,36.1136959,36.2561479,6068
"Elkader, Iowa, United States","Elkader, Clayton County, Iowa, United States, 52043",-91.4054159,42.8538739,-91.4203349,-91.3913079,42.845089,42.870373,1562
"Beloit, Rock Co, Wisconsin, United States of America","Beloit, Rock County, Wisconsin, United States, 53511",-89.0317765,42.5083482,-89.080848,-88.945007,42.495739,42.5685301,4270
"Beloit, Rock County, Wisconsin, USA","Beloit, Rock County, Wisconsin, United States, 53511",-89.0317765,42.5083482,-89.080848,-88.945007,42.495739,42.5685301,4270
"Dubuque, Iowa, United States","Dubuque, Dubuque County, Iowa, United States",-90.6677479,42.5063629,-90.8240261,-90.6358352,42.409285,42.5578554,6292
"Lindley's Hill, Lebanon, Tennessee, United States","Lebanon, Wilson County, Tennessee, United States",-86.2911024,36.2081098,-86.453643,-86.258839,36.1136959,36.2561479,6068
"Janesville, Rock County, Wisconsin, United States","Janesville, Rock County, Wisconsin, United States",-89.0274934,42.6821141,-89.080723,-88.9359989,42.6050991,42.759037,9605
"Belleville, Iowa, United States","Pocahontas County, Iowa, United States",-94.6243751,42.5949612,-94.6784091,-94.5600009,42.5592079,42.64537,5954
"Clayton City, Iowa, United States","Clayton, Clayton County, Iowa, United States, 52049",-91.1473518,42.9038759,-91.1566679,-91.136205,42.8959599,42.9137361,1163
"Claiborne, Alabama, United States","Claiborne, Monroe County, Alabama, United States, 36445",-87.5155464,31.5401611,-87.51689538,-87.51419742,31.53881212,31.54151008,197
"Oshkosh, Wisconsin, United States","Oshkosh, Winnebago County, Wisconsin, United States",-88.5426136,44.0247062,-88.6439639,-88.50785,43.9450391,44.090344,7807
"Sondelfingen, Wurttemberg, Germany","Sondelfingen, Reutlingen, Reutlingen, Tübingen, Baden-Württemberg, Germany, 72766",9.2261221,48.5181458,9.2164662,9.2406947,48.5109571,48.5278203,1071
"South end of Stissing Mountain, Stissing, New York, United States","Stissing Mountain, Stanfordville, Pine Plains, Dutchess County, New York, United States, 12581",-73.6926279,41.9564812,-73.69397688,-73.69127892,41.95513222,41.95783018,187
"Watertown, near Jefferson County, New York, United States of America","Watertown, Watertown, Jefferson County, New York, United States, 13601",-75.909743,43.9725849,-75.948809,-75.854732,43.948989,43.995938,4087
"Brulons, Sarthe, France","Brûlon, Sarthe, Pays de la Loire, France, 72350",-0.2322445,47.9669701,-0.2630072,-0.199862,47.9539507,48.0081709,2715
"Float Block A, South Fork Little Wind River, Wind River Mountains, Wyoming, United States","South Fork Little Wind River, Fremont County, Wyoming, United States, 82520",-109.0830761,42.96852875,-109.084425,-109.0817271,42.96717977,42.96987773,186
"Chattanooga, Tennessee, United States","Chattanooga, Hamilton County, Tennessee, United States",-85.3093995,35.0457984,-85.468055,-85.051498,34.9829241,35.214299,16073
"Boll, Germany","Boll, Göppingen, Stuttgart, Baden-Württemberg, Germany, 73087",9.6137842,48.6405649,9.5780938,9.6332044,48.618572,48.6600225,2594
"Bay De Noquet, Michigan, United States","Bay County, Michigan, United States",-84.0167423,43.7109732,-84.168127,-83.6988158,43.478623,43.997061,28563
"Rodman, New York, United States","Rodman, Rodman, Jefferson County, New York, United States",-75.9406679,43.8512135,-75.9515231,-75.933561,43.847531,43.8552551,727
"Boonville, New York, United States","Boonville, Boonville, Oneida County, New York, United States, 13309",-75.3365607,43.4836801,-75.3468961,-75.309538,43.472894,43.491111,1461
"Rome, New York, United States","Rome, Oneida County, New York, United States",-75.4557303,43.2128473,-75.667017,-75.3409141,43.168892,43.2815229,12048
"Keokuk, Iowa, United States","Keokuk, Lee County, Iowa, United States, 52632",-91.3963966,40.4044731,-91.43813,-91.372379,40.378264,40.440819,4521
"Campbell Co., Kentucky, United States","Campbell County, Kentucky, United States",-84.3962535,38.8951891,-84.5061488,-84.231933,38.805757,39.122016,13769
"Cincinnati, Hamilton County, Ohio, USA","Cincinnati, Hamilton County, Ohio, United States",-84.5120196,39.1031182,-84.7123951,-84.3695489,39.0520649,39.2211029,17978
"LOCKPORT, NIAGARA CO, NEW YORK, UNITED STATES OF AMERICA","Lockport, Lockport, Niagara County, New York, United States, 14094",-78.6903098,43.1706128,-78.738898,-78.662373,43.143742,43.193908,3443
"LOCKPORT, NIAGARA COUNTY, NEW YORK, UNITED STATES OF AMERICA","Lockport, Lockport, Niagara County, New York, United States, 14094",-78.6903098,43.1706128,-78.738898,-78.662373,43.143742,43.193908,3443
"Centals Mill, Wayne County, New York, United States of America","Wayne County, New York, United States",-77.010385,43.2020024,-77.3879781,-76.7023239,43.0124628,43.6867002,37257
"Sodus, Wayne County, New York, USA","Sodus, Sodus, Wayne County, New York, United States, 14551",-77.0613618,43.2378428,-77.0763631,-77.0490509,43.2273409,43.246374,1378
"New Hartford, Oneida County, New York, United States of America","New Hartford, New Hartford, Oneida County, New York, United States",-75.2876661,43.073403,-75.2985709,-75.2774899,43.062668,43.0795849,1076
"Western New York, United States","West New York, Hudson County, New Jersey, United States, 07093",-74.0161812,40.7889063,-74.0236139,-73.992998,40.7745479,40.796578,1713
"Walcott, New York, United States","Wolcott, Wolcott, Wayne County, New York, United States, 14590",-76.8149578,43.2206218,-76.826651,-76.800126,43.21057,43.2343509,1466
"NEW HARTFORD, ONEIDA CO, NEW YORK, UNITED STATES OF AMERICA","New Hartford, New Hartford, Oneida County, New York, United States",-75.2876661,43.073403,-75.2985709,-75.2774899,43.062668,43.0795849,1076
"Mohawk Village, south of, Herkimer County, New York, United States","Mohawk, German Flatts, Herkimer County, New York, United States, 13407",-75.0040449,43.0114592,-75.0207539,-74.992729,43.000656,43.016487,1078
"Swindon, England, United Kingdom","Swindon, Swindon, Swindon, England, United Kingdom",-1.7798258,51.5581438,-1.8651375,-1.7194727,51.530334,51.6071916,6678
"Rochester, Monroe County, New York, United States","Rochester, Monroe County, New York, United States",-77.6088465,43.1565779,-77.701632,-77.531166,43.1033071,43.269045,9593
"Lewiston, above, on the Niagara River, from near the top and just below the edge of the cliff, Niagara County, New York, United States","Lewiston, Lewiston, Niagara County, New York, United States",-79.0358782,43.1725552,-79.0533329,-79.0262801,43.164546,43.1799771,1135
"Walcott, Wayne County, New York, United States of America","Wolcott, Wolcott, Wayne County, New York, United States, 14590",-76.8149578,43.2206218,-76.826651,-76.800126,43.21057,43.2343509,1466
"Marshall's Mill, Lockport, Monroe County, New York, United States of America, Sweden","Sweden, Monroe County, New York, United States",-77.9510209,43.1726909,-77.99729,-77.8648329,43.1328379,43.220106,5811
"Lockport, Niagara County, New York, USA","Lockport, Lockport, Niagara County, New York, United States, 14094",-78.6903098,43.1706128,-78.738898,-78.662373,43.143742,43.193908,3443
"Sodus, Wayne County, New York, United States","Sodus, Sodus, Wayne County, New York, United States, 14551",-77.0613618,43.2378428,-77.0763631,-77.0490509,43.2273409,43.246374,1378
"Waldron, Shelby County, Indiana, United States","Waldron, Liberty Township, Shelby County, Indiana, United States, 46182",-85.6669589,39.4534557,-85.676476,-85.651195,39.446001,39.463055,1165
"Glades in Perry County, Tennessee, United States of America","Perry County, Tennessee, United States",-87.8942451,35.6786596,-88.043503,-87.6484879,35.423356,35.8409211,28602
"Wayne County, New York, United States","Wayne County, New York, United States",-77.010385,43.2020024,-77.3879781,-76.7023239,43.0124628,43.6867002,37257
"Helderberg Mountains, Albany County, New York, United States of America","Helderberg Mountains, New Scotland, Albany County, New York, United States, 12186",-73.9923517,42.5550786,-73.99370068,-73.99100272,42.55372962,42.55642758,186
"Becrafts Mountain, near Hudson, Columbia County, New York, USA","Becraft Avenue, Hudson, Greenport, Columbia County, New York, United States, 12534",-73.7677697,42.2439153,-73.76876598,-73.76606802,42.24313502,42.24583298,119
"Clarksville, Albany County, New York, United States of America","Clarksville, New Scotland, Albany County, New York, United States",-73.9638411,42.5758581,-73.9848706,-73.9402187,42.5702087,42.5842842,1837
"Cumberland, Allegany County, Maryland, United States of America","Cumberland, Allegany County, Maryland, United States, 21502",-78.7625185,39.6528654,-78.8124269,-78.710909,39.619414,39.68593,5670
"Helderberg Mountains, near Clarksville, Albany County, New York, United States of America","Helderberg Mountains, New Scotland, Albany County, New York, United States, 12186",-73.9923517,42.5550786,-73.99370068,-73.99100272,42.55372962,42.55642758,186
"Becrafts Mountain, Hudson, Columbia County, New York, United States of America","Becraft Avenue, Hudson, Greenport, Columbia County, New York, United States, 12534",-73.7677697,42.2439153,-73.76876598,-73.76606802,42.24313502,42.24583298,119
"Carlisle, Schoharie County, New York, USA","Carlisle, Carlisle, Schoharie County, New York, United States, 12031",-74.4456909,42.7570191,-74.44703988,-74.44434192,42.75567012,42.75836808,186
"Clarksville, near Albany County, New York, United States","Clarksville, New Scotland, Albany County, New York, United States",-73.9638411,42.5758581,-73.9848706,-73.9402187,42.5702087,42.5842842,1837
"Hudson, Columbia County, New York, United States of America","Hudson, Columbia County, New York, United States, 12534",-73.790959,42.2528649,-73.8089739,-73.768079,42.2391871,42.263473,2126
"Albany, Albany County, New York, United States","Albany, Albany County, New York, United States",-73.7544707,42.6518095,-73.898099,-73.723263,42.61379,42.722379,8246
"Hudson, near Columbia County, New York, USA","Hudson, Columbia County, New York, United States, 12534",-73.790959,42.2528649,-73.8089739,-73.768079,42.2391871,42.263473,2126
"Big Walker Mountain, north side, Wythe County and Bland County, Virginia, United States","Big Walker Mountain Road, Wythe County, Virginia, United States",-81.14684,37.0316599,-81.1514053,-81.1416691,37.0289432,37.0343672,506
"Cheesboros Farm, Knox, Albany County, New York, United States","Knox, Knox, Albany County, New York, United States, 12009",-74.115685,42.6711876,-74.11703398,-74.11433602,42.66983862,42.67253658,186
"Knox, Albany County, New York, United States of America","Knox, Knox, Albany County, New York, United States, 12009",-74.115685,42.6711876,-74.11703398,-74.11433602,42.66983862,42.67253658,186
"Auburn, Cayuga County, New York, USA","Auburn, Cayuga County, New York, United States, 13021",-76.5660529,42.9317335,-76.600824,-76.536915,42.906603,42.9592679,3874
"Springfield, between Cooperstown and Otsego County, New York, United States of America","Cooperstown, Otsego, Otsego County, New York, United States, 13326",-74.924321,42.7006303,-74.9470439,-74.913913,42.689884,42.7106621,1403
"Knox, Albany County, New York, United States","Knox, Knox, Albany County, New York, United States, 12009",-74.115685,42.6711876,-74.11703398,-74.11433602,42.66983862,42.67253658,186
"Near Cobleskill, New York, United States","Cobleskill, Cobleskill, Schoharie County, New York, United States",-74.4854172,42.677853,-74.5167831,-74.453181,42.6596089,42.694883,3249
"Cumberland, Maryland, United States","Cumberland, Allegany County, Maryland, United States, 21502",-78.7625185,39.6528654,-78.8124269,-78.710909,39.619414,39.68593,5670
"Gazelle Mtn., Near Abeih, Syria",Syria,38.996815,34.802075,35.6287,42.376309,32.311136,37.320705,413227
"Gazelle Mountains, Syria",Syria,38.996815,34.802075,35.6287,42.376309,32.311136,37.320705,413227
"Gazelle Mountain, Syria",Syria,38.996815,34.802075,35.6287,42.376309,32.311136,37.320705,413227
"Central New York, United States of America","Central New York, New York, United States",-76.1436136,43.0510662,-76.7535499,-74.695985,42.2629759,44.096959,100823
"Falls Of The Ohio, Kentucky, United States","Falls of the Ohio National Wildlife Conservation Area, Louisville, Jefferson County, Kentucky, United States, 40212",-85.7644073,38.2714592,-85.76575628,-85.76305832,38.27011022,38.27280818,191
"Sciota River, Delaware to Columbus, Ohio, United States","Columbus, Franklin County, Ohio, United States",-83.0032218,39.9625112,-83.2102539,-82.7713781,39.808694,40.157349,24602
"Columbus, Ohio, United States","Columbus, Franklin County, Ohio, United States",-83.0032218,39.9625112,-83.2102539,-82.7713781,39.808694,40.157349,24602
"Casts Near Delaware, Ohio, United States","Delaware, Delaware Township, Delaware County, Ohio, United States, 43015",-83.067965,40.2986724,-83.12861,-83.0126009,40.226971,40.3382011,6435
"Near Sandusky, Ohio, United States","Sandusky, Erie County, Ohio, United States, 44870",-82.7116821,41.4561754,-82.7871,-82.617723,41.416225,41.493944,7708
"Black Rock, New York, United States","Black Rock, Buffalo, Erie County, New York, United States",-78.8934762,42.9370654,-78.9100051,-78.8766581,42.927157,42.9460565,1698
"25 miles southeast of Lander, Beaver Creek, west side of Horse-Shoe Canyon, 1 mile southwest of Auer Ranch in Red Bluff Canyon, Wind River Mountains, Fremont County, Wyoming, United States.","Lander, Fremont County, Wyoming, United States, 82520",-108.7306725,42.833014,-108.8212539,-108.6845959,42.7456961,42.851547,4293
"Laphams Mill, Ontario County, New York, United States of America","Laphams Mills, Peru, Peru, Clinton County, New York, United States, 12972",-73.5023578,44.5961565,-73.50370678,-73.50100882,44.59480752,44.59750548,184
"Grignon, Paris Basin, France","Grignon, Savoie, Auvergne-Rhône-Alpes, France, 73200",6.377893,45.6511349,6.3557971,6.4041183,45.6227406,45.6627324,2417
"Williamsville, Erie County, New York, United States of America","Williamsville, Amherst, Erie County, New York, United States, 14221",-78.7378091,42.963947,-78.7554979,-78.728779,42.949158,42.9753631,1467
"Stafford, Genesee County, New York, United States of America","Stafford, Stafford, Genesee County, New York, United States, 14143",-78.0735098,42.9816684,-78.085434,-78.062779,42.9774852,42.9915881,1078
"BUFFALO, 5 MI E OF, ERIE CO, NEW YORK, USA","Buffalo, Erie County, New York, United States",-78.8788896,42.8869004,-78.9337269,-78.795157,42.826023,42.9664551,8113
"Clarence Hollow, Erie County, New York, USA","4915, Ransom Road, Clarence, Clarence, Erie County, New York, United States, 14031, 2142",-78.591644,42.9799497,-78.59311468,-78.59041672,42.97860292,42.98130088,180
"Williamsville, near Youngs, Erie County, New York, United States of America","Williamsville, Amherst, Erie County, New York, United States, 14221",-78.7378091,42.963947,-78.7554979,-78.728779,42.949158,42.9753631,1467
"Vienna, near Ontario County, New York, United States of America","Vienna, Vienna, Oneida County, New York, United States, 13308",-75.7024065,43.2395135,-75.70375548,-75.70105752,43.23816452,43.24086248,186
"Williamsville, Youngs Farm, Erie County, New York, United States of America","Williamsville, Amherst, Erie County, New York, United States, 14221",-78.7378091,42.963947,-78.7554979,-78.728779,42.949158,42.9753631,1467
"Clarence Hollow, Erie County, New York, United States","4915, Ransom Road, Clarence, Clarence, Erie County, New York, United States, 14031, 2142",-78.591644,42.9799497,-78.59311468,-78.59041672,42.97860292,42.98130088,180
"Clarence, Erie County, New York, USA","Clarence, Clarence, Erie County, New York, United States, 14031",-78.5919067,42.9806194,-78.612644,-78.577059,42.9599571,42.9882811,1480
"New York, United States","New York, New York, United States",-74.0059728,40.7127753,-74.258843,-73.700169,40.476578,40.917705,33854
"Clarence Hollow, New York, United States","Clarence, Clarence, Erie County, New York, United States, 14031",-78.5919067,42.9806194,-78.612644,-78.577059,42.9599571,42.9882811,1480
"Williamsville, New York, United States","Williamsville, Amherst, Erie County, New York, United States, 14221",-78.7378091,42.963947,-78.7554979,-78.728779,42.949158,42.9753631,1467
"Helderberg, New York, United States","Helderberg, Albany, Bethlehem, Albany County, New York, United States, 12208",-73.7933809,42.6518007,-73.8063671,-73.784965,42.6450789,42.657579,942
"Greenfield, Highland, Ross County, Ohio, United States of America","Greenfield, Madison Township, Highland County, Ohio, United States, 45123",-83.3826928,39.3520084,-83.4038471,-83.3720139,39.338631,39.3677329,1974
"Peach Point, Put-in-Bay Island, Erie County, Ohio, United States of America","Put-in-Bay, Put-in-Bay Township, Ottawa County, Ohio, United States, 43456",-82.8200081,41.6521064,-82.8372554,-82.8053,41.6289293,41.6600119,1507
"Ermingen, Wurtmberg, Germany","Ermingen, Ulm, Alb-Donau-Kreis, Tübingen, Baden-Württemberg, Germany, 89081",9.8989041,48.3819941,9.8903791,9.9034062,48.3760687,48.3854559,509
"Stafford, Genesee County, New York, United States","Stafford, Stafford, Genesee County, New York, United States, 14143",-78.0735098,42.9816684,-78.085434,-78.062779,42.9774852,42.9915881,1078
"Louisville, Kentucky, Columbus, Ohio, United States","Columbus, Franklin County, Ohio, United States",-83.0032218,39.9625112,-83.2102539,-82.7713781,39.808694,40.157349,24602
"Stafford, Genesse County, New York, United States","Stafford, Stafford, Genesee County, New York, United States, 14143",-78.0735098,42.9816684,-78.085434,-78.062779,42.9774852,42.9915881,1078
"Clarence, New York, United States","Clarence, Clarence, Erie County, New York, United States, 14031",-78.5919067,42.9806194,-78.612644,-78.577059,42.9599571,42.9882811,1480
"Columbus, near Franklin County, Ohio, United States of America","Columbus, Franklin County, Ohio, United States",-83.0032218,39.9625112,-83.2102539,-82.7713781,39.808694,40.157349,24602
"VICTOR, NEAR LAPHAMS MILL, ONTARIO CO, NEW YORK, USA","Laphams Mills, Peru, Peru, Clinton County, New York, United States, 12972",-73.5023578,44.5961565,-73.50370678,-73.50100882,44.59480752,44.59750548,184
"Delaware, Delaware County, Ohio, United States of America","Delaware, Delaware Township, Delaware County, Ohio, United States, 43015",-83.067965,40.2986724,-83.12861,-83.0126009,40.226971,40.3382011,6435
"COLUMBUS, FRANKLIN CO, OHIO, UNITED STATES OF AMERICA","Columbus, Franklin County, Ohio, United States",-83.0032218,39.9625112,-83.2102539,-82.7713781,39.808694,40.157349,24602
"Near Columbus, Ohio, United States","Columbus, Franklin County, Ohio, United States",-83.0032218,39.9625112,-83.2102539,-82.7713781,39.808694,40.157349,24602
"Alden, Erie County, New York, United States of America","Alden, Alden, Erie County, New York, United States, 14004",-78.4919671,42.9000596,-78.511332,-78.478123,42.885959,42.911257,1681
"Schoharie County, New York, United States of America","Schoharie County, New York, United States",-74.4994517,42.6550335,-74.71158,-74.1646779,42.3550169,42.829558,33575
"Bloomfield, Ontario Co, New York, United States of America","Bloomfield, East Bloomfield, Ontario County, New York, United States, 14469",-77.4214278,42.8972624,-77.4407679,-77.407719,42.890113,42.909015,1720
"Bloomfield, Ontario County, New York, United States","Bloomfield, East Bloomfield, Ontario County, New York, United States, 14469",-77.4214278,42.8972624,-77.4407679,-77.407719,42.890113,42.909015,1720
"Centerfield, New York, United States","Centerfield, Canandaigua, Ontario County, New York, United States, 14424",-77.3588754,42.8814532,-77.36022438,-77.35752642,42.88010422,42.88280218,186
"Avon, New York, United States","Avon, Avon, Livingston County, New York, United States, 14414",-77.7455583,42.9120072,-77.772816,-77.725596,42.897242,42.932701,2765
"Jonesboro, Illinois, United States","Jonesboro, Union County, Illinois, United States",-89.2682915,37.4523038,-89.281117,-89.24961,37.4383,37.468495,1924
"East Bloomfield, Ontario County, New York, United States of America","East Bloomfield, Ontario County, New York, United States",-77.4472495,42.8881413,-77.478656,-77.3700529,42.8545879,42.9445,4525
"Craigsville, Virginia, United States","Craigsville, Augusta County, Virginia, United States, 24430",-79.383094,38.0787397,-79.408847,-79.364108,38.0709499,38.0947541,2419
"Near Cobolskill, New York, United States","Cobleskill, Cobleskill, Schoharie County, New York, United States",-74.4854172,42.677853,-74.5167831,-74.453181,42.6596089,42.694883,3249
"Manlius, New York, United States","Manlius, Onondaga County, New York, United States",-75.9692855,43.0575765,-76.0424921,-75.9106089,42.9852511,43.1230439,8702
"Frobisher Bay, Sillimans Fossil Mount, Baffin Land, Northwest Territories, Canada","Iqaluit, Qikiqtaaluk Region, Nunavut, Canada",-68.5169669,63.746693,-68.6160688,-68.418387,63.6883249,63.7892321,6793
"Frobisher Bay, Baffin Island, Canada","Iqaluit, Qikiqtaaluk Region, Nunavut, Canada",-68.5169669,63.746693,-68.6160688,-68.418387,63.6883249,63.7892321,6793
"Frobisher Bay, Canada","Frobisher Bay, Qikiqtaaluk Region, Nunavut, Canada",-66.583333,62.833333,-66.58468198,-66.58198402,62.83198402,62.83468198,165
"Moscow, Livingston County, New York, USA","Livingston County, New York, United States",-77.8367282,42.7576923,-78.0610621,-77.486875,42.471216,42.988463,36763
"Vienna, Section D, Ontario County, New York, United States of America","Vienna, Vienna, Oneida County, New York, United States, 13308",-75.7024065,43.2395135,-75.70375548,-75.70105752,43.23816452,43.24086248,186
"Hamilton, New York, United States","Hamilton, Hamilton, Madison County, New York, United States, 13346",-75.5446238,42.8270136,-75.5742571,-75.529668,42.804869,42.8603449,3453
"Summit, Schoharie County, New York, United States","Summit, Summit, Schoharie County, New York, United States, 12175",-74.5882017,42.5795203,-74.58955068,-74.58685272,42.57817132,42.58086928,186
"Charleston, Indiana, United States","Charlestown, Charlestown Township, Clark County, Indiana, United States, 47111",-85.6702406,38.45312,-85.7230939,-85.620479,38.391688,38.4771699,5098
"De Ruyter, Madison County, New York, USA","DeRuyter, DeRuyter, Madison County, New York, United States, 13052",-75.8843616,42.7584005,-75.893184,-75.880187,42.754054,42.763325,645
"Tully, New York, United States","Tully, Tully, Onondaga County, New York, United States, 13159",-76.1093695,42.7981229,-76.122111,-76.101558,42.790909,42.8055789,1046
"Genesee Valley, Genesee County, New York, United States of America","8250, State Street Road, Batavia, Batavia, Genesee County, New York, United States, 14020",-78.1809898,43.0138321,-78.18227783,-78.17957987,43.01247717,43.01517513,184
"2 miles south of Alden, New York, United States","Alden, Alden, Erie County, New York, United States, 14004",-78.4919671,42.9000596,-78.511332,-78.478123,42.885959,42.911257,1681
"Penn Yan, New York, United States","Penn Yan, Milo, Yates County, New York, United States, 14527",-77.0538577,42.6609026,-77.0870471,-77.034193,42.644721,42.676564,2372
"Mount Morris, New York, United States","Mount Morris, Mount Morris, Livingston County, New York, United States, 14510",-77.8741694,42.7256184,-77.89255,-77.858364,42.70811,42.742121,2244
"Near Moscow, New York, United States","Leicester, Leicester, Livingston County, New York, United States, 14481",-77.8966709,42.7720066,-77.904826,-77.8872199,42.766252,42.7757509,878
"3 Miles S. of Alden, New York, United States","Alden, Alden, Erie County, New York, United States, 14004",-78.4919671,42.9000596,-78.511332,-78.478123,42.885959,42.911257,1681
"Hatches Mill Reservation, New York, United States","Mills Reservation, Reservoir Drive, Upper Montclair, Cedar Grove, Essex County, New Jersey, United States, 07009",-74.2096325,40.8520371,-74.21069403,-74.20799607,40.8520371,40.8575033,90
"Alden, New York, United States","Alden, Alden, Erie County, New York, United States, 14004",-78.4919671,42.9000596,-78.511332,-78.478123,42.885959,42.911257,1681
"600 D S., 13 Mile Creek, Lake Erie Shore, New York, United States","New York, United States",-74.2179326,43.2994285,-79.7625901,-71.777491,40.476578,45.015861,272895
"Fall Brook, Near Geneseo, New York, United States","Fall Brook, Lyonsdale, Lewis County, New York, United States, 13433",-75.24059446,43.57208015,-75.3178952,-75.1632937,43.5401545,43.6040058,7180
"Ithaca, New York, United States","Ithaca, Ithaca, Tompkins County, New York, United States",-76.5018807,42.4439614,-76.5269469,-76.469803,42.418327,42.4670791,3516
"Leroy, Lake County, Ohio, United States of America","Lake County, Ohio, United States",-81.2518833,41.981532,-81.4950475,-81.002116,41.56967,42.2452013,35839
"Franklyn, Delaware County, New York, United States","Franklin, Delaware County, New York, United States",-75.1311874,42.3373331,-75.205956,-75.001761,42.252819,42.4306399,11232
"Richmond, Jefferson County, Ohio, USA","Richmond, Salem Township, Jefferson County, Ohio, United States, 43944",-80.7717478,40.4333996,-80.7822269,-80.7630021,40.426364,40.437956,898
"Zanesville, Muskingum County, Ohio, USA","Zanesville, Muskingum County, Ohio, United States, 43701",-82.0131924,39.9403453,-82.0543241,-81.978929,39.909368,40.023185,4919
"Troups Creek, Steuben County, New York, United States","Troups Creek, United States",-77.52178021,42.0207371,-77.6077865,-77.4357739,41.9478626,42.0936116,10780
"Near Mt. Upton, Chenango County, New York, United States of America","Mount Upton, Guilford, Chenango County, New York, United States, 13809",-75.3832319,42.4264662,-75.38458088,-75.38188292,42.42511722,42.42781518,186
"Louisiana, Missouri, United States","Louisiana, Buffalo Township, Pike County, Missouri, United States, 63353",-91.0515256,39.4489351,-91.0951189,-91.027603,39.4134879,39.459605,2375
"Burlington, Des Moines County, Iowa, United States of America","Burlington, Des Moines County, Iowa, United States",-91.1128901,40.8076529,-91.180263,-91.078285,40.76069,40.847605,5311
"Burlington, Iowa, United States","Burlington, Des Moines County, Iowa, United States",-91.1128901,40.8076529,-91.180263,-91.078285,40.76069,40.847605,5311
"Marshall, Michigan, United States","Marshall, Calhoun County, Michigan, United States, 49068",-84.9633148,42.2722641,-84.998354,-84.924158,42.224808,42.2958321,4157
"Medina, Ohio, United States","Medina, Medina Township, Medina County, Ohio, United States, 44256",-81.8552196,41.143245,-81.9166989,-81.816135,41.109016,41.163491,3977
"Hillsdale Co., Michigan, United States","Hillsdale County, Michigan, United States",-84.5222189,41.8685961,-84.826491,-84.3604159,41.696118,42.073456,26413
"Nevark, Licking County, Ohio, United States","Newark, Newark Township, Licking County, Ohio, United States",-82.4012642,40.0581205,-82.498919,-82.337992,40.02996,40.125178,8901
"Hannibal, Marion  Ralls County, Missouri, United States of America","Hannibal, Marion County, Missouri, United States, 63401",-91.3584816,39.7083789,-91.462431,-91.322969,39.674392,39.751133,5639
"Maxville, Perry County, Ohio, USA","Maxville, Monday Creek Township, Perry County, Ohio, United States, 43138",-82.333763,39.6178456,-82.33511198,-82.33241402,39.61649662,39.61919458,189
"Newtonville, Clermont County, Ohio, United States","Clermont County, Ohio, United States",-84.1857115,39.0928449,-84.32004,-83.989921,38.770399,39.27086,26015
"Quincy, Adams County, Illinois, USA","Quincy, Quincy Township, Adams County, Illinois, United States",-91.4098726,39.9356016,-91.428424,-91.31581,39.897206,39.973067,4549
"Louisville, Button-Mould Knobs near, Jefferson County, Kentucky, United States of America","Knob Hill Road, Louisville, Jefferson County, Kentucky, United States, 40214",-85.8088748,38.1436587,-85.81012953,-85.80743157,38.14211832,38.14481628,180
"New Providence, near Clark County, Indiana, United States","707, Providence Way, Clarksville, Jeffersonville Township, Clark County, Indiana, United States, 47129, 1534",-85.7841784,38.3063845,-85.78533323,-85.78263527,38.30495082,38.30764878,188
"Nauvoo, near Hancock County, Illinois, United States of America","Nauvoo, Hancock County, Illinois, United States, 62354",-91.3834517,40.5498127,-91.406851,-91.360861,40.5230319,40.5686941,2838
"St. Genevieve, Missouri, United States","Ste. Genevieve, Ste. Genevieve Township, Ste. Genevieve County, Missouri, United States, 63670",-90.0475582,37.9786618,-90.069694,-90.0253021,37.951725,38.00355,3384
"Warsaw, Iowa, United States","Warsaw, Warsaw Township, Hancock County, Illinois, United States, 62379",-91.4345978,40.359211,-91.466999,-91.4021859,40.3318139,40.375942,3321
"Near St. Genevieve, Missouri, United States","Ste. Genevieve, Ste. Genevieve Township, Ste. Genevieve County, Missouri, United States, 63670",-90.0475582,37.9786618,-90.069694,-90.0253021,37.951725,38.00355,3384
"Warsaw, Illinois and Iowa, United States","Warsaw, Warsaw Township, Hancock County, Illinois, United States, 62379",-91.4345978,40.359211,-91.466999,-91.4021859,40.3318139,40.375942,3321
"Warsaw, Illinois, United States","Warsaw, Warsaw Township, Hancock County, Illinois, United States, 62379",-91.4345978,40.359211,-91.466999,-91.4021859,40.3318139,40.375942,3321
"St. Louis, Missouri, United States","St. Louis, Missouri, United States",-90.1994042,38.6270025,-90.320515,-90.1667169,38.5320121,38.7742881,14918
"Near New Providence, Indiana, United States","Providence, Union Township, Johnson County, Indiana, United States, 46106",-86.1766551,39.4908822,-86.17800408,-86.17530612,39.48953322,39.49223118,189
"Crawfordsville, Indiana, United States","Crawfordsville, Union Township, Montgomery County, Indiana, United States, 47933",-86.8744516,40.0411536,-86.9428449,-86.8570369,40.003199,40.086193,5217
"Crawfordville, Indiana, United States","Crawfordsville, Union Township, Montgomery County, Indiana, United States, 47933",-86.8744516,40.0411536,-86.9428449,-86.8570369,40.003199,40.086193,5217
"Near Rome, Henry County, Iowa, United States","Rome, Henry County, Iowa, United States",-91.6821432,40.9830487,-91.6859919,-91.678027,40.978651,40.9858509,466
"New Albany, Indiana, United States","New Albany, New Albany Township, Floyd County, Indiana, United States, 47150",-85.8241312,38.2856247,-85.86444,-85.7829471,38.258922,38.370978,4607
"Lower Archinellis, Warsaw, Illinois, United States","Warsaw, Warsaw Township, Hancock County, Illinois, United States, 62379",-91.4345978,40.359211,-91.466999,-91.4021859,40.3318139,40.375942,3321
"Tuscombia, Alabama, United States","Tuscumbia, Colbert County, Alabama, United States, 35674",-87.70253,34.7312005,-87.7522309,-87.660286,34.6795929,34.7455389,4183
"Spergen Hill, near Harristown, a few miles southeast of Salem, Washington County, Indiana, United States of America","North Harristown Road, Washington Township, Washington County, Indiana, United States, 47167",-86.0245115,38.6024937,-86.035113,-86.0223611,38.5883069,38.617466,1673
"Spergen Hill, near Harristown Railroad Station, a few miles southeast of Salem, Washington County, Indiana, USA","North Harristown Road, Washington Township, Washington County, Indiana, United States, 47167",-86.0245115,38.6024937,-86.035113,-86.0223611,38.5883069,38.617466,1673
"St. Genevieve, St. Genevieve County, Missouri, United States of America","Ste. Genevieve, Ste. Genevieve Township, Ste. Genevieve County, Missouri, United States, 63670",-90.0475582,37.9786618,-90.069694,-90.0253021,37.951725,38.00355,3384
"Alton, Madison County, Illinois, USA","Alton, Alton Township, Madison County, Illinois, United States",-90.1842764,38.8906038,-90.209312,-90.088186,38.8627999,38.9486969,3775
"Bloomington, Indiana, United States","Bloomington, Perry Township, Monroe County, Indiana, United States",-86.5385549,39.169574,-86.5918711,-86.471162,39.121349,39.2213699,7065
"Spergen Hill, Indiana, United States","North Harristown Road, Washington Township, Washington County, Indiana, United States, 47167",-86.0245115,38.6024937,-86.035113,-86.0223611,38.5883069,38.617466,1673
"Spergen Hill, Washington County, Indiana, USA","East Spurgeon Road, Washington County, Indiana, United States, 47167",-86.092041,38.677178,-86.0940496,-86.0860891,38.6743218,38.6794488,362
"Bloomington, Monroe County, Indiana, United States of America","Bloomington, Perry Township, Monroe County, Indiana, United States",-86.5385549,39.169574,-86.5918711,-86.471162,39.121349,39.2213699,7065
"Spergen Hills, Indiana, United States","Spurgeon, Monroe Township, Pike County, Indiana, United States",-87.2572298,38.2522716,-87.261354,-87.2552269,38.2506511,38.2603139,403
"Cataract Creek, near Grand Canyon, Arizona, United States","Grand Canyon Village, Coconino County, Arizona, United States, 86023",-112.1401108,36.0544445,-112.246748,-112.0806041,36.0040579,36.111439,8290
"Alpine, Wapella County, Iowa, United States of America","Wapello County, Iowa, United States",-92.3813621,41.0148894,-92.640376,-92.1789831,40.898867,41.162663,23632
"Monmouth County, New Jersey, United States","Monmouth County, New Jersey, United States",-74.123996,40.2589455,-74.614576,-73.88506,40.07913,40.52554,35887
"Holmdel, New Jersey, United States","Holmdel, Monmouth County, New Jersey, United States",-74.189006,40.3848944,-74.2090531,-74.133157,40.3245261,40.427111,6667
"Mullica Hill, New Jersey, United States","Mullica Hill, Harrison Township, Gloucester County, New Jersey, United States, 08062",-75.2240718,39.7392804,-75.242221,-75.1989669,39.7086791,39.749502,2433
"Clifford Point, Opposite Keyport, New Jersey, United States","Keyport, Monmouth County, New Jersey, United States",-74.2020534,40.4376218,-74.2170259,-74.1836049,40.422612,40.447476,1910
"Freehold, New Jersey, United States","Freehold, Monmouth County, New Jersey, United States, 07728",-74.2741463,40.2601105,-74.292252,-74.262022,40.2476789,40.2725519,1724
"Atlantic Highlands, New Jersey, United States","Atlantic Highlands, Monmouth County, New Jersey, United States",-74.0400231,40.4093672,-74.050988,-73.9981791,40.4017149,40.4443071,1260
"New Egypt, Monmouth County, New Jersey, United States of America","New Egypt, Plumsted, Ocean County, New Jersey, United States",-74.5307093,40.0676135,-74.5531051,-74.499724,40.043561,40.087413,3284
"Harrisonville, New Jersey, United States","Harrisonville, South Harrison, Gloucester County, New Jersey, United States",-75.2662152,39.6852344,-75.293254,-75.2500041,39.676764,39.7018919,2314
"Shark River, New Jersey, United States","Shark River, Monmouth County, New Jersey, United States",-74.07112484,40.2082779,-74.1357407,-74.006509,40.1659325,40.2506233,7235
"Eufaula, Alabama, United States","Eufaula, Barbour County, Alabama, United States",-85.1454876,31.8912717,-85.2798699,-85.0488249,31.781378,32.0291221,17615
"Eufaula, Barbour County, Alabama, USA","Eufaula, Barbour County, Alabama, United States",-85.1454876,31.8912717,-85.2798699,-85.0488249,31.781378,32.0291221,17615
"Tippa, Mississippi, United States","Tippah County, Mississippi, United States",-88.864698,34.7688097,-89.088616,-88.717794,34.596319,34.9959199,28057
"Denton Co., Texas, United States","Denton County, Texas, United States",-97.179026,33.1418611,-97.398459,-96.8341099,32.987435,33.4304501,26706
"Bell Co., Texas, United States","Bell County, Texas, United States",-97.5247243,31.134411,-97.913847,-97.070057,30.752363,31.320202,47968
"Sherman, Texas, United States","Sherman, Grayson County, Texas, United States",-96.6088805,33.6356618,-96.7157571,-96.5483931,33.529915,33.709161,9896
"Alabama, United States","Alabama, United States",-86.902298,32.3182314,-88.4732269,-84.888246,30.144425,35.008028,283696
"Nolan's Creek, Belton, Bell County, Texas, United States","Nolan Loop, Belton, Bell County, Texas, United States, 76513",-97.55262,31.0900742,-97.5565142,-97.5494812,31.08934322,31.09204118,370
"Denison, Texas, United States","Denison, Grayson County, Texas, United States",-96.536658,33.7556593,-96.6812529,-96.49387,33.694649,33.857308,11951
"Fort Clark, Texas, United States","Fort Clark Springs, Fort Clark Springs, Kinney County, Texas, United States, 78832",-100.422023,29.3060681,-100.423372,-100.420674,29.30471912,29.30741708,199
"Texas, United States","Texas, United States",-99.9018131,31.9685988,-106.6456461,-93.5080389,25.8371165,36.5011261,774098
"Deep Eddy Bluff, Colorado River, Texas, United States","Deep Eddy, Bexar County, Texas, United States",-98.2309083,29.4587535,-98.23195813,-98.22926017,29.45720032,29.45989828,200
"Deep Eddy Bluff, Austin, Texas, United States","Deep Eddy Avenue, West Austin Ng, Austin, Travis County, Texas, United States, 78703",-97.7719322,30.2786064,-97.77341138,-97.77071342,30.2772992,30.2803065,203
"Deep Eddy Bluff, Colorado River, Austin, Texas, United States","Deep Eddy Avenue, West Austin Ng, Austin, Travis County, Texas, United States, 78703",-97.7719322,30.2786064,-97.77341138,-97.77071342,30.2772992,30.2803065,203
"Coon Creek, Tennessee, United States","Tennessee, United States",-86.5804473,35.5174913,-90.3104911,-81.6469,34.9829239,36.678255,344588
"Missouri River, United States","Missouri River, United States",-101.0890294,43.35308133,-112.0659891,-90.1120696,38.4808923,48.2252704,1009355
"Missouri River, Dakota, United States","North Dakota, United States",-101.0020119,47.5514926,-104.049012,-96.5544111,45.9350719,49.0005585,294084
"Black Hills, South Dakota, United States","Black Hills, United States",-103.7717686,43.9939484,-104.8546036,-103.0906876,43.4105899,44.751826,100193
"20 Miles W. of Edgemont, South Dakota, United States","Edgemont, Southwest Fall River, Fall River County, South Dakota, United States, 57735",-103.8254758,43.3010841,-103.853954,-103.8163309,43.289565,43.3073359,1016
"Edgemont, South Dakota, United States","Edgemont, Southwest Fall River, Fall River County, South Dakota, United States, 57735",-103.8254758,43.3010841,-103.853954,-103.8163309,43.289565,43.3073359,1016
"Sioux City, Iowa, United States","Sioux City, Woodbury County, Iowa, United States",-96.4049408,42.4963416,-96.4989971,-96.2996081,42.370334,42.565417,11566
"Grove Co., Kansas, United States","Gove County, Kansas, United States",-100.5296115,38.9271279,-100.8187949,-100.14794,38.6973411,39.133455,35799
"Fort Hays, Colorado, United States","Hays, Otero County, Colorado, United States, 81067",-103.6191121,38.0730633,-103.6204611,-103.6177631,38.07171432,38.07441228,191
"Grove County, Kansas, United States","Gove County, Kansas, United States",-100.5296115,38.9271279,-100.8187949,-100.14794,38.6973411,39.133455,35799
"Mouth of Big Sioux River on the Missouri River, Grant County, Nebraska, United States of America","Grant County, Nebraska, United States",-101.7979613,41.8637754,-102.0677819,-101.42592,41.742057,42.096227,26184
"Owl Creek, Dakota, United States",NA,NA,NA,NA,NA,NA,NA,NA
"Hell Creek, Montana, United States","Hell Creek, Garfield County, Montana, United States, 59337",-106.8764564,47.6225061,-106.8778054,-106.8751074,47.62115712,47.62385508,181
"Edgemont, Wyoming, United States",NA,NA,NA,NA,NA,NA,NA,NA
"Grove, Grove County, Kansas, United States","Grove, Grove Township, Shawnee County, Kansas, United States, 66539",-95.8591536,39.1674982,-95.86050258,-95.85780462,39.16614922,39.16884718,190
"Pierre Shells, Hell Creek, 125 Miles W. of Miles City, Montana, United States","Hell Creek, Garfield County, Montana, United States, 59337",-106.8764564,47.6225061,-106.8778054,-106.8751074,47.62115712,47.62385508,181
"On the Missouri River, 5 miles below the James River, Yankton County, South Dakota, United States of America","Yankton County, South Dakota, United States",-97.3516558,43.016179,-97.6374961,-97.160202,42.799701,43.169978,23128
"Judith River, Montana, United States","Judith River, Montana, United States",-109.8065137,47.34735846,-110.0997602,-109.5132672,46.9470764,47.7476406,49678
"Armstrong  Dewey Counties, South Dakota, United States","Dewey, West Custer, Custer County, South Dakota, United States, 57735",-104.0410424,43.5308076,-104.0423914,-104.0396934,43.52945862,43.53215658,185
"Long Lake, Dakota, United States","Long Lake, Central McPherson, McPherson County, South Dakota, United States, 57457",-99.205113,45.8566411,-99.211649,-99.1982089,45.853206,45.860478,635
"Snow Creek, 130 miles northwest of Miles City, Garfield County, Montana, United States","Snow Creek Road, Garfield County, Montana, United States, 59337",-107.0633894,47.4176397,-107.0755877,-107.0551679,47.3789543,47.4578587,4398
"MONTANA, UNITED STATES, GARFIELD COUNTY, MISSOURI RIVER, SNOW CREEK","Snow Creek Road, Garfield County, Montana, United States, 59337",-107.0633894,47.4176397,-107.0755877,-107.0551679,47.3789543,47.4578587,4398
"Snow Creek, Missouri River, Montana, United States","Snow Creek Road, Garfield County, Montana, United States, 59337",-107.0633894,47.4176397,-107.0755877,-107.0551679,47.3789543,47.4578587,4398
"South Miles City, Custer County, Montana, United States of America","Miles City, Custer County, Montana, United States, 59301",-105.8405582,46.4083362,-105.866094,-105.810091,46.382774,46.427673,3179
"Snow Creek, Garfield County, Montana, United States","Snow Creek Road, Garfield County, Montana, United States, 59337",-107.06339,47.4176397,-107.07559,-107.05517,47.3789543,47.4578587,4398
"Fort Washington, Maryland, United States","Fort Washington, Prince George's County, Maryland, United States, 20744",-77.0230313,38.7073379,-77.0433979,-76.9706081,38.695384,38.78223,2214
"Near Charleston, South Carolina, United States","Charleston, Charleston County, South Carolina, United States",-79.9319664,32.7833163,-80.1858852,-79.7971659,32.6728444,32.973586,24585
"Orangeburg, South Carolina, United States","Orangeburg, Orangeburg County, South Carolina, United States",-80.8556476,33.4918203,-80.9145039,-80.833162,33.4420771,33.5330119,5024
"Near Orangeburg, South Carolina, United States","Orangeburg, Orangeburg County, South Carolina, United States",-80.8556476,33.4918203,-80.9145039,-80.833162,33.4420771,33.5330119,5024
"Baker's Creek, Hinds County, Mississippi, United States","4793, Farr Road, Bolton, Hinds County, Mississippi, United States, 39041, 9371",-90.550605,32.4412329,-90.55132473,-90.54862677,32.43987327,32.44257123,165
"Vicksburg, Mississippi, United States","Vicksburg, Parish Governing Authority District 1, Warren County, Mississippi, United States",-90.877882,32.3526456,-90.9517351,-90.8189079,32.2233941,32.428079,10038
"Jackson, Mississippi, United States","Jackson, Hinds County, Mississippi, United States",-90.18065,32.2981392,-90.329895,-90.05567,32.1954599,32.412656,17311
"Jackson, Massachusetts, United States",NA,NA,NA,NA,NA,NA,NA,NA
"Cedar Creek Anticline, Dawson County, Montana, USA","Cedar Street, West Glendive, Dawson County, Montana, United States, 59330",-104.7612612,47.10413,-104.7627192,-104.7600213,47.1017518,47.1062802,257
"Jacksonberg, Georgia, United States",NA,NA,NA,NA,NA,NA,NA,NA
"Halfway Between York and James Rivers, Virginia, United States","James River, Virginia, United States",-78.15961167,37.39383239,-79.8744836,-76.4447397,36.9446108,37.843054,159394
"James River, Virginia, United States","James River, Virginia, United States",-78.15961167,37.39383239,-79.8744836,-76.4447397,36.9446108,37.843054,159394
"Yorktown, Virginia, United States","Yorktown, York County, Virginia, United States, 23690",-76.5096731,37.2387556,-76.5254111,-76.504562,37.22878,37.2425249,617
"Bellfield, York River, Virginia, United States","York River, York County, Virginia, United States",-76.3824455,37.2476419,-76.38379448,-76.38109652,37.24629292,37.24899088,192
"Simmons, South Carolina, United States","Simmons, Greenwood County, South Carolina, United States, 29653",-82.2679,34.3076177,-82.26924898,-82.26655102,34.30626872,34.30896668,194
"Plantain Garden District, Jamaica",Jamaica,-77.297508,18.109581,-78.4073639,-76.1448669,17.6688854,18.5697821,127325
"Bowden, Jamaica, West Indies",Jamaica,-77.297508,18.109581,-78.4073639,-76.1448669,17.6688854,18.5697821,127325
"Bowden, Jamaica",Jamaica,-77.297508,18.109581,-78.4073639,-76.1448669,17.6688854,18.5697821,127325
"Astoria, Oregon, United States","Astoria, Clatsop County, Oregon, United States, 97103",-123.8312534,46.1878841,-123.8742851,-123.739344,46.170013,46.214976,3871
"Charden, Geauga County, Ohio, USA","Chardon, Hambden Township, Geauga County, Ohio, United States, 44024",-81.2133262,41.5786639,-81.2332811,-81.187656,41.554648,41.5996511,3144
"Delaware, Delaware Co, Ohio, United States of America","Delaware, Delaware Township, Delaware County, Ohio, United States, 43015",-83.067965,40.2986724,-83.12861,-83.0126009,40.226971,40.3382011,6435
"Montreal, Canada","Montreal, Montréal, Montreal, Quebec, Canada",-73.5673919,45.5018869,-73.9475431,-73.4762036,45.4145877,45.7037777,23540
"West Covington, Kentucky, Kentucky, United States","West Covington, Covington, Kenton County, Kentucky, United States, 41011",-84.5338321,39.0889488,-84.53518108,-84.53248312,39.08759982,39.09029778,190
"W. Covington, Kentucky, Kentucky, United States","Covington, Kenton County, Kentucky, United States",-84.5085536,39.0836712,-84.5542991,-84.47971,38.9645559,39.097747,2944
"Cincinnati, Ohio, Ohio, United States","Cincinnati, Hamilton County, Ohio, United States",-84.5120196,39.1031182,-84.7123951,-84.3695489,39.0520649,39.2211029,17978
"Clarksville, Ohio, Ohio, United States","Clarksville, Vernon Township, Clinton County, Ohio, United States, 45113",-83.9813202,39.4014502,-83.9925421,-83.974077,39.395626,39.4069701,875
"Wilmington, Ohio, Ohio, United States","Wilmington, Union Township, Clinton County, Ohio, United States, 45177",-83.8285375,39.4453393,-83.8652539,-83.763051,39.4019151,39.4633769,5765
"Oregonia, Ohio, Ohio, United States","Oregonia, Washington Township, Warren County, Ohio, United States, 45054",-84.0960452,39.4508937,-84.09739418,-84.09469622,39.44954472,39.45224268,190
"MEDINA, MEDINA CO, OHIO, UNITED STATES OF AMERICA","Medina, Medina Township, Medina County, Ohio, United States, 44256",-81.8552196,41.143245,-81.9166989,-81.816135,41.109016,41.163491,3977
"NEWTOWNVILLE, CLERMONT CO, OHIO, UNITED STATES OF AMERICA","Clermont County, Ohio, United States",-84.1857115,39.0928449,-84.32004,-83.989921,38.770399,39.27086,26015
"HOLLAND, LUCAS CO, OHIO, UNITED STATES OF AMERICA","Holland, Springfield Township, Lucas County, Ohio, United States, 43528",-83.711604,41.621718,-83.7180191,-83.6927509,41.6066051,41.631968,1762
"CERRILLOS, JUST N OF, SANTA FE CO, NEW MEXICO, UNITED STATES","Los Cerrillos, Santa Fe County, New Mexico, United States",-106.1245907,35.4375198,-106.1431509,-106.0974699,35.4043001,35.448413,2743
"Korycan, Bohemia, Germany","Koryčany, Koryčany, Kroměříž District, Zlín Region, Czechia, 768 05",17.164335,49.1063903,17.1108595,17.2472703,49.0739217,49.1393435,5319
"ABEIH, LEBANON MTS., LEBANON","Mount Lebanon, Bcharre, North Governorate, Lebanon",36.116667,34.3,36.11531802,36.11801598,34.29865102,34.30134898,194
"ABEIH, OLIVE LOCALITY, ABEIH SS, LEBANON",Lebanon,35.862285,33.854721,35.0711001,36.62372,33.0550256,34.69209,115228
"ABEIH, N EDGE OF VILLAGE, S SIDE OF SMALL VALLEY, OLIVE LOCALITY, LEBANON","Lebanon, Wilson County, Tennessee, United States",-86.2911024,36.2081098,-86.453643,-86.258839,36.1136959,36.2561479,6068
"ABEIH, NEAR, DUCCUN, BEWERTY BEDS, LEBANON",Lebanon,35.862285,33.854721,35.0711001,36.62372,33.0550256,34.69209,115228
"ABEIH, NEAR, ABEIH SS, CLAYEY SEAMS, LEBANON",Lebanon,35.862285,33.854721,35.0711001,36.62372,33.0550256,34.69209,115228
"ABEIH, NEAR, BEWERTY, BEWERTY BEDS, IN THE CLAYEY LS, LEBANON",Lebanon,35.862285,33.854721,35.0711001,36.62372,33.0550256,34.69209,115228
"AUVERS, FRANCE",NA,NA,NA,NA,NA,NA,NA,NA
"Auvers, Paris Basin, France, France","Auvers-sur-Oise, Val-d'Oise, Île-de-France, France, 95430",2.17081,49.070852,2.1203826,2.1933843,49.0639351,49.1054287,3764
"Le Fayal, France, France",France,2.213749,46.227638,-109.2967524,11.4548613,10.2676819,51.3682119,886364
"ARBUCKLE MTNS, STONEWALL QUAD, 1500 FT S AND 500 FT E OF NW COR,SEC27,T3N,R7E, PONTOTOC CO, Oklahoma, UNITED STATES","Stonewall, Pontotoc County, Oklahoma, United States, 74871",-96.5261161,34.6525901,-96.533793,-96.520888,34.630991,34.6582071,786
"ARBUCKLE MTNS, STONEWALL QUAD, CENTER OF E LINE OF SE14,SEC22,T3N,R7E, PONTOTOC CO, Oklahoma, UNITED STATES","Stonewall, Pontotoc County, Oklahoma, United States, 74871",-96.5261161,34.6525901,-96.533793,-96.520888,34.630991,34.6582071,786
"ARBUCKLE MTNS, STONEWALL QUAD, SHALE BED W OF CANYON CREEK, 1600 FT E  650 FT N OF SE COR SEC4,T1N,R7E, PONTOTOC CO, Oklahoma, UNITED STATES","Stonewall, Pontotoc County, Oklahoma, United States, 74871",-96.5261161,34.6525901,-96.533793,-96.520888,34.630991,34.6582071,786
"ARBUCKLE MTNS, STONEWALL QUAD, CENTER NE14,SEC22,T3N,R7E, PONTOTOC CO, Oklahoma, UNITED STATES","Stonewall, Pontotoc County, Oklahoma, United States, 74871",-96.5261161,34.6525901,-96.533793,-96.520888,34.630991,34.6582071,786
"ARBUCKLE MTNS, STONEWALL QUAD, 600 FT S OF STRIP PIT IN SEC14,T1N,R7E, RED LS 15 FT BELOW LEHIGH COAL, PONTOTOC CO, Oklahoma, UNITED STATES","Stonewall, Pontotoc County, Oklahoma, United States, 74871",-96.5261161,34.6525901,-96.533793,-96.520888,34.630991,34.6582071,786
"ARBUCKLE MTNS, STONEWALL QUAD, ON SIDE OF BLUFF E OF ARTESIAN WELL AND S OF FORDS HOUSE, SEC16,T3N,R6E, PONTOTOC CO, Oklahoma, UNITED STATES","Stonewall, Pontotoc County, Oklahoma, United States, 74871",-96.5261161,34.6525901,-96.533793,-96.520888,34.630991,34.6582071,786
"ARBUCKLE MTNS, SHALE PIT ADA BRICK CO, NEAR SE COR OF ADA, ESE PT SEC4,T3N,R6E, PONTOTOC CO, Oklahoma, UNITED STATES","Stonewall, Pontotoc County, Oklahoma, United States, 74871",-96.5261161,34.6525901,-96.533793,-96.520888,34.630991,34.6582071,786
"ARBUCKLE MTNS, STONEWALL QUAD, JACKFORK CREEK BED, N CENTRAL PART SEC35,T3N,R6E, PONTOTOC CO, Oklahoma, UNITED STATES","Jack Fork Creek, Pontotoc County, Oklahoma, United States",-96.6188931,34.67895575,-96.6357535,-96.6020327,34.6699007,34.6880108,1843
"ARBUCKLE MTNS, STONEWALL QUAD, BEND OF COAL CREEK, E CENTRAL PART SEC15,T1N,R7E, RED LS 15 FT BELOW LEHIGH COAL, PONTOTOC CO, Oklahoma, UNITED STATES","Stonewall, Pontotoc County, Oklahoma, United States, 74871",-96.5261161,34.6525901,-96.533793,-96.520888,34.630991,34.6582071,786
"ARBUCKLE MTNS, STONEWALL QUAD, N CENTRAL PART SEC18,T3N,R7E, AREA OF SEVERAL ACRES S OF LOC162, PONTOTOC CO, Oklahoma, UNITED STATES","Stonewall, Pontotoc County, Oklahoma, United States, 74871",-96.5261161,34.6525901,-96.533793,-96.520888,34.630991,34.6582071,786
"ARBUCKLE MTNS, STONEWALL QUAD, E OF JACKFORK CREEK, NEAR CENTER NE14,SEC2,T2N,R6E, PONTOTOC CO, Oklahoma, UNITED STATES","Jack Fork Creek, Pontotoc County, Oklahoma, United States",-96.6188931,34.67895575,-96.6357535,-96.6020327,34.6699007,34.6880108,1843
"ARBUCKLE MTNS, STONEWALL QUAD, NEAR CENTER NE14,SEC2,T2N,R6E, 20 FT BELOW SYCAMORE LS, CALCAREOUS SHALE, PONTOTOC CO, Oklahoma, UNITED STATES","Stonewall, Pontotoc County, Oklahoma, United States, 74871",-96.5261161,34.6525901,-96.533793,-96.520888,34.630991,34.6582071,786
"ARBUCKLE MTNS, STONEWALL QUAD, 1300 FT N AND 200 FT E OF LOVE LADY SCHOOL,SW COR SEC4,T3N,R7E, PONTOTOC CO, Oklahoma, UNITED STATES","Stonewall, Pontotoc County, Oklahoma, United States, 74871",-96.5261161,34.6525901,-96.533793,-96.520888,34.630991,34.6582071,786
"ARBUCKLE MTNS, STONEWALL QUAD, SIDE OF SOUTHWARD-FACING ESCARPMENT, CENTER N LINE OF SEC18,T3N,R7E, PONTOTOC CO, Oklahoma, UNITED STATES","Stonewall, Pontotoc County, Oklahoma, United States, 74871",-96.5261161,34.6525901,-96.533793,-96.520888,34.630991,34.6582071,786
"ARBUCKLE MTNS, STONEWALL QUAD, E CENTRAL PART SEC31,T2N,R7E, PONTOTOC CO, Oklahoma, UNITED STATES","Stonewall, Pontotoc County, Oklahoma, United States, 74871",-96.5261161,34.6525901,-96.533793,-96.520888,34.630991,34.6582071,786
"ARBUCKLE MTNS, STONEWALL QUAD, RR RIGHT OF WAY AT NE COR,SEC8,T4N,R6E, PONTOTOC CO, Oklahoma, UNITED STATES","Stonewall, Pontotoc County, Oklahoma, United States, 74871",-96.5261161,34.6525901,-96.533793,-96.520888,34.630991,34.6582071,786
"ARBUCKLE MTNS, STONEWALL QUAD, BEND OF CORAL CREEK, E CENTRAL PART SEC15,T1N,R7E, RED LS THAT OCCURS 15  FT BELOW LEHIGH COAL, PONTOTOC CO, Oklahoma, UNITED STATES","Stonewall, Pontotoc County, Oklahoma, United States, 74871",-96.5261161,34.6525901,-96.533793,-96.520888,34.630991,34.6582071,786
"ARBUCKLE MTNS, STONEWALL QUAD, 900 FT SW CEMENT BRIDGE ON BOIS DARC CREEK, E CENTRAL PART SEC11,T2N,R6E, PONTOTOC CO, Oklahoma, UNITED STATES","Bois d'Arc Creek, Pontotoc County, Oklahoma, United States",-96.60103374,34.64866823,-96.6183901,-96.5836774,34.6404773,34.6568591,1832
"ARBUCKLE MTNS, STONEWALL QUAD, NEAR CREEK BED 300 FT S OF LOC 73A, SEC12,T2N,R6E, PONTOTOC CO, Oklahoma, UNITED STATES","Stonewall, Pontotoc County, Oklahoma, United States, 74871",-96.5261161,34.6525901,-96.533793,-96.520888,34.630991,34.6582071,786
"ARBUCKLE MTNS, STONEWALL QUAD, 1500 FT S  500 FT E OF NW COR,SEC27,T3N,R7E, PONTOTOC CO, Oklahoma, UNITED STATES","Stonewall, Pontotoc County, Oklahoma, United States, 74871",-96.5261161,34.6525901,-96.533793,-96.520888,34.630991,34.6582071,786
"ARBUCKLE MTNS, STONEWALL QUAD, IN ROAD, SW COR,SEC4,T2N,R5E, PONTOTOC CO, Oklahoma, UNITED STATES","Stonewall, Pontotoc County, Oklahoma, United States, 74871",-96.5261161,34.6525901,-96.533793,-96.520888,34.630991,34.6582071,786
"ARBUCKLE MTNS, STONEWALL QUAD, 1000 FT S TO 2000 FT E OF NW COR,SEC7,T3N,R7E, PONTOTOC CO, Oklahoma, UNITED STATES","Stonewall, Pontotoc County, Oklahoma, United States, 74871",-96.5261161,34.6525901,-96.533793,-96.520888,34.630991,34.6582071,786
"ARBUCKLE MTNS, STONEWALL QUAD, CENTER OF E LINE OF NE14,SEC12,T3N,R6E, PONTOTOC CO, Oklahoma, UNITED STATES","Stonewall, Pontotoc County, Oklahoma, United States, 74871",-96.5261161,34.6525901,-96.533793,-96.520888,34.630991,34.6582071,786
"ARBUCKLE MTNS, STONEWALL QUAD, CENTER NE 14,SEC22,T3N,R7E, PONTOTOC CO, Oklahoma, UNITED STATES","Stonewall, Pontotoc County, Oklahoma, United States, 74871",-96.5261161,34.6525901,-96.533793,-96.520888,34.630991,34.6582071,786
"ARBUCKLE MTNS, STONEWALL QUAD, JUST N OF RR, NE COR,SEC29,T3N,R7E, PONTOTOC CO, Oklahoma, UNITED STATES","Stonewall, Pontotoc County, Oklahoma, United States, 74871",-96.5261161,34.6525901,-96.533793,-96.520888,34.630991,34.6582071,786
"ARBUCKLE MTNS, SHALE PIT ADA BRICK CO NEAR SE CORNER OF ADA, STONEWALL QUAD,ESE PT SEC4,T3N,R6E, PONTOTOC CO, Oklahoma, UNITED STATES","Stonewall, Pontotoc County, Oklahoma, United States, 74871",-96.5261161,34.6525901,-96.533793,-96.520888,34.630991,34.6582071,786
"ARBUCKLE MTNS, STONEWALL QUAD, ROAD CUT TOP OF HILL E OF MUDDY BOGGY CREEK, SW COR,SEC29,T4N,R7E, PONTOTOC CO, Oklahoma, UNITED STATES","Stonewall, Pontotoc County, Oklahoma, United States, 74871",-96.5261161,34.6525901,-96.533793,-96.520888,34.630991,34.6582071,786
"ARBUCKLE MTNS, STONEWALL QUAD, GULLY 900 FT N OF CENTER SEC4,T1N,R7E, PONTOTOC CO, Oklahoma, UNITED STATES","Stonewall, Pontotoc County, Oklahoma, United States, 74871",-96.5261161,34.6525901,-96.533793,-96.520888,34.630991,34.6582071,786
"ARBUCKLE MTNS, STONEWALL QUAD, ROAD AT HOUSE 1000 FT S OF NE COR,SEC17,T2N,R8E, PONTOTOC CO, Oklahoma, UNITED STATES","Stonewall, Pontotoc County, Oklahoma, United States, 74871",-96.5261161,34.6525901,-96.533793,-96.520888,34.630991,34.6582071,786
"ARBUCKLE MTNS, STONEWALL QUAD, JUST N OF RR BRIDGE N CENTRAL PART SEC16,T6N,R8E, PONTOTOC CO, Oklahoma, UNITED STATES","Stonewall, Pontotoc County, Oklahoma, United States, 74871",-96.5261161,34.6525901,-96.533793,-96.520888,34.630991,34.6582071,786
"ARBUCKLE MTNS, STONEWALL QUAD, CENTER OF S LINE SEC30,T4N,R7E, 300 FT N OF GRAVELED ROAD, PONTOTOC CO, Oklahoma, UNITED STATES","Stonewall, Pontotoc County, Oklahoma, United States, 74871",-96.5261161,34.6525901,-96.533793,-96.520888,34.630991,34.6582071,786
"ARBUCKLE MTNS, STONEWALL QUAD, 1000 FT E  200 FT S ON NE COR,SEC5,T4N,R8E, PONTOTOC CO, Oklahoma, UNITED STATES","Stonewall, Pontotoc County, Oklahoma, United States, 74871",-96.5261161,34.6525901,-96.533793,-96.520888,34.630991,34.6582071,786
"ARBUCKLE MTNS, STONEWALL QUAD, N BANK OF CREEK N OF CENTER OF SEC1,T1N,R6E, PONTOTOC CO, Oklahoma, UNITED STATES","Stonewall, Pontotoc County, Oklahoma, United States, 74871",-96.5261161,34.6525901,-96.533793,-96.520888,34.630991,34.6582071,786
"ARBUCKLE MTNS, STONEWALL QUAD, N CENTRAL PART SEC35,T2N,R6E, PONTOTOC CO, Oklahoma, UNITED STATES","Stonewall, Pontotoc County, Oklahoma, United States, 74871",-96.5261161,34.6525901,-96.533793,-96.520888,34.630991,34.6582071,786
"ARBUCKLE MTNS, STONEWALL QUAD, S BANK TRIBUTARY BOIS DARC CREEK, NEAR CENTER SEC17,T2N,R7E, PONTOTOC CO, Oklahoma, UNITED STATES","Bois d'Arc Creek, Pontotoc County, Oklahoma, United States, 74843",-96.66649912,34.65227201,-96.7092661,-96.6237322,34.633922,34.6706221,4417
"ARBUCKLE MTNS, STONEWALL QUAD, ROAD 300 FT W NE COR,SEC30,T6N,R7E, PONTOTOC CO, Oklahoma, UNITED STATES","Stonewall, Pontotoc County, Oklahoma, United States, 74871",-96.5261161,34.6525901,-96.533793,-96.520888,34.630991,34.6582071,786
"ARBUCKLE MTNS, STONEWALL QUAD, CENTER OF E LINE SEC9,T3N,R7E, PONTOTOC CO, Oklahoma, UNITED STATES","Stonewall, Pontotoc County, Oklahoma, United States, 74871",-96.5261161,34.6525901,-96.533793,-96.520888,34.630991,34.6582071,786
"ARBUCKLE MTNS, STONEWALL QUAD, TOP OF BLUFF AT NE COR SEC23,T2N,R6E, PONTOTOC CO, Oklahoma, UNITED STATES","Stonewall, Pontotoc County, Oklahoma, United States, 74871",-96.5261161,34.6525901,-96.533793,-96.520888,34.630991,34.6582071,786
"ARBUCKLE MTNS, STONEWALL QUAD, SEC14,T1N,R7E, PONTOTOC CO, Oklahoma, UNITED STATES","Stonewall, Pontotoc County, Oklahoma, United States, 74871",-96.5261161,34.6525901,-96.533793,-96.520888,34.630991,34.6582071,786
"ARBUCKLE MTNS, STONEWALL QUAD, ROAD SW COR SEC4,T2N,R5E, PONTOTOC CO, Oklahoma, UNITED STATES","Stonewall, Pontotoc County, Oklahoma, United States, 74871",-96.5261161,34.6525901,-96.533793,-96.520888,34.630991,34.6582071,786
"ARBUCKLE MTNS, STONEWALL QUAD, 500 FT S  AND 1000 FT E OF CENTER SEC15,T2N,R6E, SHALE WHICH RESTS ON WEWOKA SS, PONTOTOC CO, Oklahoma, UNITED STATES","Stonewall, Pontotoc County, Oklahoma, United States, 74871",-96.5261161,34.6525901,-96.533793,-96.520888,34.630991,34.6582071,786
"ARBUCKLE MTNS, STONEWALL QUAD, SE 14,SEC14,T1N,R7E, PONTOTOC CO, Oklahoma, UNITED STATES","Stonewall, Pontotoc County, Oklahoma, United States, 74871",-96.5261161,34.6525901,-96.533793,-96.520888,34.630991,34.6582071,786
"ARBUCKLE MTNS, STONEWALL QUAD, 1200 FT N OF SE COR,SEC12,T5N,R7E, PONTOTOC CO, Oklahoma, UNITED STATES","Stonewall, Pontotoc County, Oklahoma, United States, 74871",-96.5261161,34.6525901,-96.533793,-96.520888,34.630991,34.6582071,786
"ARBUCKLE MTNS, RR CUT 14 MI S OF SASAKWA, STONEWALL QUAD,SEC36,T6N,R7E, PONTOTOC CO, Oklahoma, UNITED STATES","Sasakwa, Seminole County, Oklahoma, United States, 74867",-96.525289,34.9486951,-96.529235,-96.5205,34.941678,34.9527399,627
"ARBUCKLE MTNS, STONEWALL QUAD, 800 FT E  800 FT S OF DE NAY SCHOOL, SEC5,T4N,R7E, PONTOTOC CO, Oklahoma, UNITED STATES","Stonewall, Pontotoc County, Oklahoma, United States, 74871",-96.5261161,34.6525901,-96.533793,-96.520888,34.630991,34.6582071,786
"ARBUCKLE MTNS, SHALE PIT OF ADA BRICK CO NEAR SE CORNER OF ADA, STONEWALL QUAD,ESE PT SEC4,T3N,R6E, PONTOTOC CO, Oklahoma, UNITED STATES","Stonewall, Pontotoc County, Oklahoma, United States, 74871",-96.5261161,34.6525901,-96.533793,-96.520888,34.630991,34.6582071,786
"ARBUCKLE MTNS, STONEWALL QUAD, LOVE LADY SCHOOL, 1300 FT N   200 FT E OF, SW COR,SEC4,T3N,R7E, PONTOTOC CO, Oklahoma, UNITED STATES","Stonewall, Pontotoc County, Oklahoma, United States, 74871",-96.5261161,34.6525901,-96.533793,-96.520888,34.630991,34.6582071,786
"ARBUCKLE MTNS, STONEWALL QUAD, NEAR CREEK BED 300 FT S OF LOC 73A, NEAR CENTER OF E LINE,SEC12,T2N,R6E, PONTOTOC CO, Oklahoma, UNITED STATES","Stonewall, Pontotoc County, Oklahoma, United States, 74871",-96.5261161,34.6525901,-96.533793,-96.520888,34.630991,34.6582071,786
"ARBUCKLE MTNS, STONEWALL QUAD, NEAR CENTER OF SE14,SEC12,T5N,R7E, PONTOTOC CO, Oklahoma, UNITED STATES","Stonewall, Pontotoc County, Oklahoma, United States, 74871",-96.5261161,34.6525901,-96.533793,-96.520888,34.630991,34.6582071,786
"ARBUCKLE MTNS, STONEWALL QUAD, ROAD AT NE COR SEC26,T1N,R8E, PONTOTOC CO, Oklahoma, UNITED STATES","Stonewall, Pontotoc County, Oklahoma, United States, 74871",-96.5261161,34.6525901,-96.533793,-96.520888,34.630991,34.6582071,786
"Red Deer R., Alberta, Canada, Canada","Red Deer River, Alberta, Canada",-113.848963,52.20084247,-114.1250005,-113.5729255,52.0352996,52.3663854,26347
"Wagner's Ranch, Mouth Of Mechichi Creek, Red Deer River, Alberta, Canada, Canada","Red Deer River, Alberta, Canada",-113.848963,52.20084247,-114.1250005,-113.5729255,52.0352996,52.3663854,26347
"Can. Northern R.R. Cut, Tox Coulee, Alberta, Canada, Canada","Alberta, Canada",-116.5765035,53.9332706,-120.0026981,-109.9996407,48.9966671,60.0000733,598444
"10 Miles N. Of Ghost Pine, Alberta Canada, Canada","Alberta, Canada",-116.5765035,53.9332706,-120.0026981,-109.9996407,48.9966671,60.0000733,598444
"Top Coulee Cut, Canadian Northern Railroad  Cut 1 Mile Below Town, 20 Ft. Below Surface, Alberta Canada, Canada","Alberta, Canada",-116.5765035,53.9332706,-120.0026981,-109.9996407,48.9966671,60.0000733,598444
"4 Miles Below Tolman, On Red Deer River, Alberta, Canada, Canada","Tolman, Kneehill County, Alberta, Canada, T0J 2Y0",-113.016933,51.833443,-113.018282,-113.015584,51.83209402,51.83479198,177
"Canon City, Colorado, Colorado, United States","Cañon City, Fremont County, Colorado, United States, 81212",-105.2253316,38.4494063,-105.273494,-105.149021,38.3877299,38.475763,7275
"TRILOBITE MTN, 3 MI SE OF PORT JERVIS, FROM IMMEDIATELY ABOVE THE ESOPUS-SCHOHARIE, ORANGE CO, NEW YORK, UNITED STATES OF AMERICA","Port Jervis, Orange County, New York, United States, 12771",-74.692663,41.3750937,-74.7131119,-74.6724161,41.3563859,41.393924,2691
"Boulder, Colorado, Colorado, United States","Boulder, Boulder County, Colorado, United States",-105.2747406,40.0189728,-105.30145,-105.178355,39.9569151,40.094412,7258
"Round Butte, N. Of Wellington, Colorado, Colorado, United States","Round Butte, Larimer County, Colorado, United States, 80549",-105.0488624,40.9152619,-105.0502114,-105.0475134,40.91391292,40.91661088,188
"N. Of Ft. Morgan, Colorado, Colorado, United States","Fort Morgan, Morgan County, Colorado, United States, 80701",-103.7999509,40.2502582,-103.820507,-103.7539719,40.2322079,40.274017,2660
"N.E. Of Osgood, Colorado, Colorado, United States","Colorado, United States",-105.7820674,39.5500507,-109.060204,-102.041522,36.992449,41.0034439,356675
"75 Ft. Above Base, Southwest Of Naturita, Colorado, Colorado, United States","Naturita, Montrose County, Colorado, United States",-108.5687033,38.2183239,-108.5852171,-108.550718,38.214519,38.22217,1507
"Mollersdorf, Austria, Germany","Möllersdorf, Traiskirchen, Baden, Niederösterreich, Austria, 2514",16.3042289,48.0295381,16.30287992,16.30557788,48.02818912,48.03088708,181
"Voslau Bei Vienna, Germany","Flugplatz Wien-Loav, Top 1, 1, Flugplatz, Kottingbrunn, Baden, Niederösterreich, Austria, 2542",16.2518578,47.9640482,16.25033237,16.25303033,47.96273932,47.96543728,178
"Skaneateles Lake, New York, New York, United States","Skaneateles, Skaneateles, Onondaga County, New York, United States, 13152",-76.4291017,42.947011,-76.4444289,-76.409342,42.936043,42.957728,1746
"Lindhorst, Germany, Germany","Lindhorst, Schaumburg, Lower Saxony, Germany, 31",9.2842261,52.3580298,9.2633822,9.3297644,52.3393223,52.3807292,2520
"Bekum, Germany Zone Of Parahoplites Schmidti  Oppelia Aff. Trautscholdi, Germany","Beckum, Warendorf, Münster, North Rhine-Westphalia, Germany, 59269",8.0425504,51.7561792,7.9529007,8.1376884,51.7016743,51.8191108,8668
Misburg,"Misburg-Anderten, Hanover, Hanover Region, Lower Saxony, Germany",9.8575904,52.3879107,9.819127,9.9183278,52.33931,52.4147811,5102
"Lagerndorf, Germany, Germany","Lägerdorf, Steinburg, Schleswig-Holstein, Germany, 25566",9.5721294,53.8868964,9.544094,9.6020693,53.8701849,53.8928336,2076
"Nefgraben, Germany","Neugraben-Fischbek, Harburg, Hamburg, Hamburg, Hamburg, Germany, 21",9.8360224,53.4731315,9.7983798,9.8780608,53.4297548,53.4958589,3766
"PANAMA BAY, ABOUT 1 MI FROM MAINLAND, IN MUD AT MOUTH OF RIO GRANDE NEAR LA BOCA, PANAMA","La Boca, Panama City, Panama, Panamá Province, Panama",-79.5610464,8.9484054,-79.5668989,-79.5560467,8.9442631,8.952641,722
"BIG HORN BASIN, BIG HORN CO, WYOMING, UNITED STATES OF AMERICA","Bighorn Basin, Big Horn County, Wyoming, United States, 82410",-108.1995708,44.2996353,-108.2009198,-108.1982218,44.29828632,44.30098428,185
"BIGHORN BASIN, BIG HORN CO, WYOMING, UNITED STATES OF AMERICA","Bighorn Basin, Big Horn County, Wyoming, United States, 82410",-108.1995708,44.2996353,-108.2009198,-108.1982218,44.29828632,44.30098428,185
"STOWE CREEK, MOUTH OF. BIG HORN BASIN, BIG HORN CO, WYOMING, UNITED STATES","Bighorn Basin, Big Horn County, Wyoming, United States, 82410",-108.1995708,44.2996353,-108.2009198,-108.1982218,44.29828632,44.30098428,185
"SAN SEBASTIAN, 4.9 KM E, SAN SEBASTIAN-LARES RD, COLLAZO RIVER BRIDGE, BELOW 100 FT WATERFALL ON SENOR RABELLS PROPERTY, COLLAZO SH, PUERTO RICO","San Sebastián, Piedras Blancas, San Sebastián, Puerto Rico, 00685",-66.9946591,18.3353954,-67.009817,-66.979226,18.3202951,18.3499451,2292
"SAN SEBASTIAN-LARES RD, KM POST 28, HM 4, RIO COLLAZO BRIDGE, 30 M E, NOT MORE THAN 20 FT BELOW TOP OF RIO COLLAZO GREEN SHALES, UPPER PART OF FM, PUERTO RICO","San Sebastián, Piedras Blancas, San Sebastián, Puerto Rico, 00685",-66.9946591,18.3353954,-67.009817,-66.979226,18.3202951,18.3499451,2292
"GUANICA HARBOR, E SHORE, 1 KM N OF GUANICA LIGHTHOUSE, CLIFF 300 FT S LIGHTHOUSE PIER, PUERTO RICO","Guánica, Montalva, Guánica, Puerto Rico",-66.9382831,17.9678199,-66.9594359,-66.901292,17.9592939,17.9793678,2431
"SAN SEBASTIAN-LARES RD, NEAR COLLAZO RIVER BRIDGE, KM POST 28, HM POST 4, OPPOSITE SIDE OF RD, 20 FT BELOW TOP OF FM, RIO COLLAZO SH, PUERTO RICO","San Sebastián, Piedras Blancas, San Sebastián, Puerto Rico, 00685",-66.9946591,18.3353954,-67.009817,-66.979226,18.3202951,18.3499451,2292
"RIO COLLAZA, SAN SEBASTIAN, PUERTO RICO","Salto Collazo, Puerto Rico 111, San Sebastián, Piedras Blancas, San Sebastián, Puerto Rico, 00685",-66.9495171,18.3330408,-66.95084798,-66.94815002,18.33167772,18.33437568,206
"SAN SEBASTIAN, 49 KM E, SAN SEBASTIAN-LARES RD, JUST BELOW 100 FT WATERFALL S OF BRIDGE, IN STREAMBED ON SR.RABELLS PROPERTY, RIO COLLAZO SH, PUERTO RICO","San Sebastián, Piedras Blancas, San Sebastián, Puerto Rico, 00685",-66.9946591,18.3353954,-67.009817,-66.979226,18.3202951,18.3499451,2292
"SAN SEBASTIAN-LARES RD, COLLAZO RIVER BRIDGE, RIO COLLAZO GREENISH SHALES IN BANK 5-20 FT HIGHER THAN BRIDGE, PUERTO RICO","San Sebastián, Piedras Blancas, San Sebastián, Puerto Rico, 00685",-66.9946591,18.3353954,-67.009817,-66.979226,18.3202951,18.3499451,2292
"SAN SEBASTIAN LARES RD, KM POST 33, HM POST 3, QUARRY ON N SIDE OF RD, PUERTO RICO","San Sebastián, Piedras Blancas, San Sebastián, Puerto Rico, 00685",-66.9946591,18.3353954,-67.009817,-66.979226,18.3202951,18.3499451,2292
"COLLAZO RIVER, 100 YDS BELOW LAST FALLS  50 FT , BANK OF RIVER, OUTCROP OF RIO COLLAZO GREEN SHALES, PUERTO RICO",Puerto Rico,-66.590149,18.220833,-68.1195557,-65.2105715,17.8449191,18.5989505,151652
"SAN SEBASTIAN, 6 KM E, SAN SEBASTIAN-LARES RD, KM 29, HM 3 TO 4, RIO COLLAZO SH, FROM DK GREEN SH 11 TO 12 FT THICK, EXPOSED ALONG RD NO.8, PUERTO RICO","San Sebastián, Piedras Blancas, San Sebastián, Puerto Rico, 00685",-66.9946591,18.3353954,-67.009817,-66.979226,18.3202951,18.3499451,2292
"SAN SEBASTIAN LARES GOVT RD, KM POST 28, HM POST 4, COLLAZO SH, PUERTO RICO","Lares, Pueblo, Lares, Puerto Rico, 00669",-66.8817721,18.2961977,-66.895771,-66.867776,18.2837539,18.30996,2022
"SAN SEBASTIAN, 11KM NE, RIO GUAYAJATACA, SR.RABELLS RANCH, IN FIELD 1 KM NE FARMHOUSE, PUERTO RICO","San Sebastián, Piedras Blancas, San Sebastián, Puerto Rico, 00685",-66.9946591,18.3353954,-67.009817,-66.979226,18.3202951,18.3499451,2292
"18 Miles W. Of Fort Worth, Texas, Texas, United States","Miles Drive, Fort Worth, Tarrant County, Texas, United States, 76132",-97.412827,32.6725554,-97.41405283,-97.41135487,32.67160522,32.67430318,156
"Godley, Texas, Texas, United States","Godley, Johnson County, Texas, United States, 76044",-97.5266886,32.449029,-97.5562629,-97.495697,32.429273,32.503428,3540
"4 Milesn.E. Of Denison, Texas On Red River, Near Rifle Range, Texas, United States","Denison, Grayson County, Texas, United States",-96.536658,33.7556593,-96.6812529,-96.49387,33.694649,33.857308,11951
"Denton, Txas, Texas, United States","Denton, Denton County, Texas, United States",-97.1324105,33.2165858,-97.26649,-97.0239159,33.11751,33.3581481,16648
"12 Miles W. Of Denton, Texas, On Oliver Creek, Texas, United States","Denton, Denton County, Texas, United States",-97.1324105,33.2165858,-97.26649,-97.0239159,33.11751,33.3581481,16648
"Weberville, Near Austin, Texas, Texas, United States","Webberville Road, Austin, Travis County, Texas, United States",-97.5694467,30.2490524,-97.6118833,-97.5270627,30.2474809,30.2571298,4088
"Grayson Bluff, 2 Miles N.E. Of Roanoake, Denton Co., Texes, Denton, Texas, United States","Roanoke, Denton County, Texas, United States",-97.2258483,33.0040126,-97.258197,-97.195001,32.988507,33.044348,3478
"R.R.Cut, 2 Miles E.Of Tarrant Station, Texas, Texas, United States","Tarrant County, Texas, United States",-97.3516558,32.7732044,-97.550582,-97.031007,32.548666,32.994194,31117
"Sanger, Texas, Texas, United States","Sanger, Denton County, Texas, United States, 76266",-97.1739027,33.3631705,-97.2454,-97.11122,33.325808,33.4251461,7840
"8 Miles S.W. Of Ft. Worth, Texas, Texas, United States","Southwest Drive, Fort Worth, Tarrant County, Texas, United States",-97.3340279,32.612887,-97.3354531,-97.332753,32.607074,32.6190597,658
"Burleson, Texas, Texas, United States","Burleson, Johnson County, Texas, United States",-97.3230849,32.5424289,-97.4315451,-97.2488301,32.4327191,32.5719181,7703
"Dessau, Texas, Texas, United States","Dessau, Austin, Travis County, Texas, United States, 78754",-97.6407615,30.4000849,-97.64211048,-97.63941252,30.39873592,30.40143388,198
"Benbrook,Texas, Texas, United States","Benbrook, Tarrant County, Texas, United States",-97.4605759,32.673188,-97.5039981,-97.411845,32.6458199,32.723728,5080
"Tarrant Station, Texas, Texas, United States","Tarrant County, Texas, United States",-97.3516558,32.7732044,-97.550582,-97.031007,32.548666,32.994194,31117
"Chalk Hill, Ft Worth  Dallas Road, Texas, Texas, United States","Chalk Hills Court, Tarrant County, Texas, United States, 76126",-97.5183159,32.6237202,-97.51943153,-97.51673357,32.62253992,32.62523788,168
"18 Miles W. Of Ft. Worth, Texas, Texas, United States","Fort Worth, Tarrant County, Texas, United States",-97.3307658,32.7554883,-97.6000779,-97.0338401,32.550589,33.0491639,33981
"18 Miles W. Ft. Worth, Texas, Texas, United States","Miles Drive, Fort Worth, Tarrant County, Texas, United States, 76132",-97.412827,32.6725554,-97.41405283,-97.41135487,32.67160522,32.67430318,156
"Rio Vista, Texas, Texas, United States","Rio Vista, Johnson County, Texas, United States, 76093",-97.3744605,32.2334808,-97.393335,-97.362142,32.2205729,32.2645431,2283
"Roanoake, Texas, Texas, United States","Roanoke, Denton County, Texas, United States",-97.2258483,33.0040126,-97.258197,-97.195001,32.988507,33.044348,3478
"Benbrook, Tarrant Co., Texas, Tarrant, Texas, United States","Benbrook, Tarrant County, Texas, United States",-97.4605759,32.673188,-97.5039981,-97.411845,32.6458199,32.723728,5080
"EDWARDSVILLE, FLOYD CO, INDIANA, UNITED STATES OF AMERICA","Floyd County, Indiana, United States",-85.8895551,38.2869276,-86.0332041,-85.7610301,38.1806394,38.4190789,17244
"LANESVILLE, HARRISON CO, INDIANA, UNITED STATES OF AMERICA","Lanesville, Franklin Township, Harrison County, Indiana, United States, 47136",-85.9858008,38.2370131,-85.996035,-85.971691,38.228804,38.250825,1278
"Alahuela, Chaares R., Canal Zone,Panama, Panama",Panama,-80.782127,8.537981,-83.0525813,-77.1584879,7.0409,9.7145001,300207
"CAMURUPIM, NEAR MOSSORO, RIO GRANDE DO NORTE, BRAZIL","Camurupim, Mossoró, Rio Grande do Norte, Brazil",-37.3818148,-5.3029303,-37.38316378,-37.38046582,-5.30427928,-5.30158132,211
"ITAPASSAROCA, KM 45 RIO GRANDE DO NORTE CENTRAL RAILWAY, RIO GRANDE DO NORTE, BRAZIL","Ceará-Mirim, Rio Grande do Norte, Brazil, 59570-000",-35.4884832,-5.6058162,-35.48983218,-35.48713422,-5.60716518,-5.60446722,211
"BAIXA DO LEITE, S OF MACAU, RIO GRANDE DO NORTE, BRAZIL","Macau, State of Rio Grande do Norte, Brazil",-36.6355492,-5.1133423,-36.7515019,-36.368185,-5.4022381,-5.0617987,30189
"ARVOREDO, NEAR MACAHYBA, W OF NATAL, RIO GRANDE DO NORTE, BRAZIL","Rua Arvoredo, Macaíba, Rio Grande do Norte, Brazil",-35.2922936,-5.9146355,-35.2955971,-35.2889333,-5.923088,-5.9061547,1004
"SAO SEBASTIAO, KM-30 MOSSORO-SAO SEBASTIAO RAILWAY, RIO GRANDE DO NORTE, BRAZIL","São Sebastião, Nova Cruz, Rio Grande do Norte, Brazil, 59215-000",-35.4321387,-6.4803905,-35.43348768,-35.43078972,-6.48173948,-6.47904152,211
"ITAPASSAROCA, NEAR MACAHYBA, RIO GRANDE DO NORTE, BRAZIL","Macaíba, State of Rio Grande do Norte, Brazil",-35.3521969,-5.8567353,-35.5722266,-35.2807069,-6.0539548,-5.8294725,8472
"BAIXA DO LEITE, SE OF MACAU, RIO GRANDE DO NORTE, BRAZIL","Baixa, Governador Dix-Sept Rosado, Rio Grande do Norte, Brazil, 59790-000",-37.4899307,-5.5167401,-37.49127968,-37.48858172,-5.51808908,-5.51539112,211
"Manzanilla Bay, 450' S. Of The Way To The Bay, Trinidad, Trinidad and Tobago","Manzanilla Bay, Trinidad and Tobago",-61.0325805,10.504774,-61.0439107,-61.0101056,10.4775153,10.5239996,3252
"Old Quayagurer Road, Near The 9.5 Mile Post, Right,W, On The Road, Trinidad, Trinidad and Tobago","Trinidad, Trinidad and Tobago",-61.2335592,10.3757217,-61.9314174,-60.9091318,10.0424809,10.8438153,62779
"2000' S. Of 14 Mile Post On Chichland Junction Road, Couva-River Atrea, Trinidad, Trinidad and Tobago","Couva, Couva-Tabaquite-Talparo Regional Corporation, Trinidad and Tobago",-61.4501987,10.4432986,-61.4981175,-61.4132148,10.4109364,10.4656991,4747
"Brasso Quarry Near Brassos, Near Trigon. Sign 533, Trinidad, Trinidad and Tobago","Trinidad, Trinidad and Tobago",-61.2335592,10.3757217,-61.9314174,-60.9091318,10.0424809,10.8438153,62779
"Cumuto River Atrea, Trinidad, Trinidad and Tobago","Cumuto, Sangre Grande Regional Corporation, Trinidad and Tobago",-61.205873,10.5838327,-61.2118721,-61.199255,10.5793687,10.5892401,821
"Couva River Trias, 21Oo' S.E. Of 1.25 Mile Post Onsan Coco Road, Trinidad, Trinidad and Tobago","Couva, Couva-Tabaquite-Talparo Regional Corporation, Trinidad and Tobago",-61.4501987,10.4432986,-61.4981175,-61.4132148,10.4109364,10.4656991,4747
"Guaracara River Trica Sabal River Bed, Trinidad, B.W.I., Trinidad and Tobago","Trinidad, Trinidad and Tobago",-61.2335592,10.3757217,-61.9314174,-60.9091318,10.0424809,10.8438153,62779
"Santa Maria River Strea, 3300' E. Of 34 Mile Posst Om Frasal Trench, Trinidad, Trinidad and Tobago","Trinidad, Trinidad and Tobago",-61.2335592,10.3757217,-61.9314174,-60.9091318,10.0424809,10.8438153,62779
"Manzanilla Bay, About 150' S.W. From The Road To The Bay, Trinidad, Trinidad and Tobago","Manzanilla Bay, Trinidad and Tobago",-61.0325805,10.504774,-61.0439107,-61.0101056,10.4775153,10.5239996,3252
"Mamural River Springitrea, Near Brasso Vinado, Trinidad, B.W.I., Trinidad and Tobago","Brasso Venado, Couva-Tabaquite-Talparo Regional Corporation, Trinidad and Tobago",-61.2612503,10.4175226,-61.2644863,-61.2579633,10.4138714,10.419443,418
"Manzanilla Bay Outcrop, 200's.W. From Road, Trinidad, Trinidad and Tobago","Trinidad, Trinidad and Tobago",-61.2335592,10.3757217,-61.9314174,-60.9091318,10.0424809,10.8438153,62779
"Mamurall River Itria, 600' S. Of 14 Mile Post Of Mamural Road, Trinidad, Trinidad and Tobago","Trinidad, Trinidad and Tobago",-61.2335592,10.3757217,-61.9314174,-60.9091318,10.0424809,10.8438153,62779
"Rio Dulce River Arca, Central Trinidad, Trinidad and Tobago","Trinidad, Trinidad and Tobago",-61.2335592,10.3757217,-61.9314174,-60.9091318,10.0424809,10.8438153,62779
"Machapure Quarry, S.E. Wall Of The Quarry, Central Trinidad, Trinidad and Tobago","Central Range, Couva-Tabaquite-Talparo Regional Corporation, Trinidad and Tobago",-61.25,10.4166667,-61.25134898,-61.24865102,10.41531772,10.41801568,210
"Machapoore Quarry, Central Trinidad, Trinidad and Tobago","Trinidad, Trinidad and Tobago",-61.2335592,10.3757217,-61.9314174,-60.9091318,10.0424809,10.8438153,62779
"Brasso Quarry, Near Brasso, Trinidad,B.W.I., Trinidad and Tobago","Brasso, Couva-Tabaquite-Talparo Regional Corporation, Trinidad and Tobago",-61.3173758,10.3996378,-61.319778,-61.314114,10.3973132,10.4012919,368
"Machapoore Quarry, Eastern Part Of The Quarry, Central Trinidad, Trinidad and Tobago","Quarry, Siparia, Siparia Regional Corporation, Trinidad and Tobago",-61.5311224,10.1268636,-61.5559673,-61.5092754,10.0973604,10.1436004,3027
"Bowd. River Arca, 3000' S.E. Of Gowan Trigon Station, Central Range, Trinidad, Trinidad and Tobago","Central Range, Couva-Tabaquite-Talparo Regional Corporation, Trinidad and Tobago",-61.25,10.4166667,-61.25134898,-61.24865102,10.41531772,10.41801568,210
"Mayo Tortugatrea, N.E. From Pointe Pierre, Trinidad, B.W.I., Trinidad and Tobago","Pointe-A-Pierre, Couva-Tabaquite-Talparo Regional Corporation, Trinidad and Tobago",-61.4595993,10.3155401,-61.4649868,-61.4533567,10.3104436,10.32691,816
"Mayo-River Bed, N. Of Maraval Road, Trinidad, B.W.I., Trinidad and Tobago","Trinidad, Trinidad and Tobago",-61.2335592,10.3757217,-61.9314174,-60.9091318,10.0424809,10.8438153,62779
"Machapoore Quary, Central Trinidad, Trinidad and Tobago","Quarry, Siparia, Siparia Regional Corporation, Trinidad and Tobago",-61.5311224,10.1268636,-61.5559673,-61.5092754,10.0973604,10.1436004,3027
"Savonella Riou Springitrea, Between Brasso And Springvale, About 14 Mile S,E, Of 1.5 Mile Post Of The Onossal Round, Trinidad, B.W.I., Trinidad and Tobago","Trinidad, Trinidad and Tobago",-61.2335592,10.3757217,-61.9314174,-60.9091318,10.0424809,10.8438153,62779
"Mamural River Spring  Tria, Near Brasso Venaca, Berrtral, Trinidad, 500' N. Of Mile Post Of Brasso Tamassa Road, Trinidad and Tobago","Brasso, Couva-Tabaquite-Talparo Regional Corporation, Trinidad and Tobago",-61.3173758,10.3996378,-61.319778,-61.314114,10.3973132,10.4012919,368
"Machapoure Quarry, Central Trinidad, B.W.I., Trinidad and Tobago","Trinidad, Trinidad and Tobago",-61.2335592,10.3757217,-61.9314174,-60.9091318,10.0424809,10.8438153,62779
"Quebrada Grande Atrea, 1000' S Of Bridge Of Leckaim Road, Trinidad, B.W.I., Trinidad and Tobago","Trinidad, Trinidad and Tobago",-61.2335592,10.3757217,-61.9314174,-60.9091318,10.0424809,10.8438153,62779
"Brasso Quarry, Near Brasso, Trinidad, Nar Trigon Signal, 533', B.W.I., Trinidad and Tobago","Brasso, Couva-Tabaquite-Talparo Regional Corporation, Trinidad and Tobago",-61.3173758,10.3996378,-61.319778,-61.314114,10.3973132,10.4012919,368
"River Bed Between Mayo And Tortuga, W. Of The Mayo Road, Trinidad, Trinidad and Tobago","Mayo Road, Couva-Tabaquite-Talparo Regional Corporation, Trinidad and Tobago",-61.392769,10.3897204,-61.3968598,-61.3822726,10.3733211,10.4055861,1868
"Couva River Trica, 1700' S.E. Of Gowan Trigon, Thakion, Trinidad, Trinidad and Tobago","Couva River, Trinidad and Tobago",-61.47565491,10.4219253,-61.5019256,-61.4493842,10.4129298,10.4309208,3044
"Cumulo River, Trinidad, Trinidad and Tobago","Trinidad, Trinidad and Tobago",-61.2335592,10.3757217,-61.9314174,-60.9091318,10.0424809,10.8438153,62779
"Machapoore Quary,Central Trinidad, S.E. Part Of Quary, Trinidad and Tobago",Trinidad and Tobago,-61.222503,10.691803,-61.9725001,-60.4508999,9.9930001,11.4004,112790
"Manzanilla Bay, About 150' S.W. Of Road To The Bay, On The Shore, Trinidad and Tobago","Manzanilla Bay, Trinidad and Tobago",-61.0325805,10.504774,-61.0439107,-61.0101056,10.4775153,10.5239996,3252
"1900' S.E. Of Crossing Of Quebrada Clara R. And Palbos Road, Grande Itrea Trinidad, Trinidad and Tobago","Trinidad, Trinidad and Tobago",-61.2335592,10.3757217,-61.9314174,-60.9091318,10.0424809,10.8438153,62779
"Manzenilla Bay, 150' S. Of The Way To The Bay Right On The Beach, Trinidad, Trinidad and Tobago","Manzanilla Bay, Trinidad and Tobago",-61.0325805,10.504774,-61.0439107,-61.0101056,10.4775153,10.5239996,3252
"Couva Robatrea, 300' E. Of 14 Mile Post, On Chickland Junction Road, Trinidad, B.W.I., Trinidad and Tobago","Chickland, Preysal, Couva-Tabaquite-Talparo Regional Corporation, Trinidad and Tobago",-61.380814,10.4140025,-61.3861941,-61.376821,10.4096282,10.4189092,697
"1000' N. Of Junction Of Pantin-Itocevero Road And Kennedy Trace., Trinidad, Trinidad and Tobago","Trinidad, Trinidad and Tobago",-61.2335592,10.3757217,-61.9314174,-60.9091318,10.0424809,10.8438153,62779
"Talparo River Atria,1100' E. Of.  S Of 5 34 Mile Post Onmanetrae Road, Trinidad, B.W.I., Trinidad and Tobago","Talparo, Couva-Tabaquite-Talparo Regional Corporation, Trinidad and Tobago",-61.2714535,10.5132236,-61.2780905,-61.2606668,10.5058295,10.5197548,1094
"630' S.S. Of 114 Mile Post On San Coco Road, Couva River Spring Atria, Trinidad, Trinidad and Tobago","San Coco Road, Preysal, Couva-Tabaquite-Talparo Regional Corporation, Trinidad and Tobago",-61.3633193,10.3974234,-61.36429573,-61.36159777,10.3932937,10.4009397,432
"Santa Maria River Atrea, 800' E Of 2.5 Mile Post Of Lonir Couoa Road, Trinidad, Trinidad and Tobago","Trinidad, Trinidad and Tobago",-61.2335592,10.3757217,-61.9314174,-60.9091318,10.0424809,10.8438153,62779
"Atrena River, Tumpuna Reserve, Trinidad, Trinidad and Tobago","Tumpuna Road North, Trinidad and Tobago",-61.2736064,10.6249934,-61.2816573,-61.2685382,10.6064872,10.6419522,1956
"Pantin Itsceverro Road, 1000'N. Of Junchion Of Pantinitscovero Road And Kennedy, Trace, Trinidad, Trinidad and Tobago","Trinidad, Trinidad and Tobago",-61.2335592,10.3757217,-61.9314174,-60.9091318,10.0424809,10.8438153,62779
"Mahaica River, 112 Miles S.W. From Talparo, Trinidad, B.W.I., Trinidad and Tobago","Talparo, Couva-Tabaquite-Talparo Regional Corporation, Trinidad and Tobago",-61.2714535,10.5132236,-61.2780905,-61.2606668,10.5058295,10.5197548,1094
"Spring Vale, Near Couva, Trinidad, Trinidad and Tobago","Spring Vale Road, Couva-Tabaquite-Talparo Regional Corporation, Trinidad and Tobago",-61.4233966,10.3855625,-61.4318742,-61.4172839,10.3665995,10.4000003,1732
"Manzanilla Bay, Outcrop About 150' From The Road To The Bay, Trinidad and Tobago","Manzanilla Bay, Trinidad and Tobago",-61.0325805,10.504774,-61.0439107,-61.0101056,10.4775153,10.5239996,3252
"Rio Dulce-River Trea, 700-6.75Mile Post On D'Thadie Road, Trinidad, B.W.I., Trinidad and Tobago","Trinidad, Trinidad and Tobago",-61.2335592,10.3757217,-61.9314174,-60.9091318,10.0424809,10.8438153,62779
"Between Mansanilla Point And Point Paloma, E. Coast Of Trinidad, Trinidad and Tobago","Trinidad, Trinidad and Tobago",-61.2335592,10.3757217,-61.9314174,-60.9091318,10.0424809,10.8438153,62779
"Cienuto River Atrea, 200' N. Of 12 Mile Post On Carmichael Road, Trinidad, Trinidad and Tobago","Trinidad, Trinidad and Tobago",-61.2335592,10.3757217,-61.9314174,-60.9091318,10.0424809,10.8438153,62779
"Teak Hill, Near Guayagayaro, S.W. Trinidad, Trinidad and Tobago","Trinidad, Trinidad and Tobago",-61.2335592,10.3757217,-61.9314174,-60.9091318,10.0424809,10.8438153,62779
"About 150', Just S.W. ,Right, Of The Road To The Bay, On The Shore, Manzanilla Bay, Trinidad, Trinidad and Tobago","Manzanilla Bay, Trinidad and Tobago",-61.0325805,10.504774,-61.0439107,-61.0101056,10.4775153,10.5239996,3252
"Manzanilla Bay, About 150' Right,L., From The Road On The Coast, Trinidad and Tobago","Manzanilla Bay, Trinidad and Tobago",-61.0325805,10.504774,-61.0439107,-61.0101056,10.4775153,10.5239996,3252
"Talparo River Atrea, About 14 Mile E. Of N. Of 6 Mile Post On Manurisl Road, Trinidad, Trinidad and Tobago","Talparo, Couva-Tabaquite-Talparo Regional Corporation, Trinidad and Tobago",-61.2714535,10.5132236,-61.2780905,-61.2606668,10.5058295,10.5197548,1094
"Teah Hill Atrea, Near Guayaguayana, S. To Triidad, Trinidad and Tobago","Trinidad, Trinidad and Tobago",-61.2335592,10.3757217,-61.9314174,-60.9091318,10.0424809,10.8438153,62779
"Teak Hill Atrea, Near Quayaguayare, S.E. Trinidad, Trinidad and Tobago","Guayaguayare, Mayaro Rio Claro Regional Corporation, Trinidad and Tobago",-61.0704263,10.2189197,-61.1156559,-60.9855366,10.1124435,10.2619687,10448
"Springvale, Near Couva, Trinidad, Trinidad and Tobago","Spring Vale Road, Couva-Tabaquite-Talparo Regional Corporation, Trinidad and Tobago",-61.4233966,10.3855625,-61.4318742,-61.4172839,10.3665995,10.4000003,1732
"About 12 Mile S. Of 14 12 Mile Post, On Cumulo Road, Itrea, Trinidad, Trinidad and Tobago","Trinidad, Trinidad and Tobago",-61.2335592,10.3757217,-61.9314174,-60.9091318,10.0424809,10.8438153,62779
"SIMLA, 21 MI NW, ARKI, 5 MI NW, LOWER ZONE, SIMLA HILLS, INDIA","Summer Hill, Shimla, Shimla, Shimla Division, Himachal Pradesh, India, 171005",77.1398878,31.114582,77.1320057,77.1447945,31.1036564,31.1196028,727
"5 Miles N.W. Og Arki, 21 Miles N.W. Of Simla, Simla Hills State, India","Village And Post Office, Poabo, Shimla, Shimla, Shimla Division, Himachal Pradesh, India, 171006",77.1813154,31.1299546,77.18101652,77.18371448,31.12806347,31.13076143,212
"5 Miles N.W. Of Arki, 21 Miles N.W. Of Simla, Simla Hills State, India, India","Village And Post Office, Poabo, Shimla, Shimla, Shimla Division, Himachal Pradesh, India, 171006",77.1813154,31.1299546,77.18101652,77.18371448,31.12806347,31.13076143,212
"HAYSTACK MTNS, N SIDE, HALFWAY UP, HORIZON B, SUBLETTE CO, WYOMING, UNITED STATES","Haystack Mountain, Sublette County, Wyoming, United States, 82923",-109.1662398,42.7316189,-109.1675888,-109.1648908,42.73026992,42.73296788,186
"BIGHORN BASIN. HEAD OF BIG SAND COULEE. SEC1,T55N,R101W. CLARKFORKIAN 3, PARK CO, WYOMING, UNITED STATES OF AMERICA","Bighorn Basin, Big Horn County, Wyoming, United States, 82410",-108.1995708,44.2996353,-108.2009198,-108.1982218,44.29828632,44.30098428,185
"BIG SAND COULEE, HEAD OF, COARSE FRAIBLE GREENISH SS, CLARK FORK BEDS, PARK CO, WYOMING, UNITED STATES","Big Sand Coulee, Carbon County, Montana, United States, 59008",-109.0579214,44.9999475,-109.0592704,-109.0565724,44.99859852,45.00129648,184
"ST. JOE, 9 MI FROM. BIGHORN BASIN. T50N,R95W. WASATCHIAN 3, 4, BIG HORN CO, WYOMING, UNITED STATES OF AMERICA","Bighorn Basin, Big Horn County, Wyoming, United States, 82410",-108.1995708,44.2996353,-108.2009198,-108.1982218,44.29828632,44.30098428,185
"BIG HORN BASIN, ST.JOE, BIG HORN CO, WYOMING, UNITED STATES","Bighorn Basin, Big Horn County, Wyoming, United States, 82410",-108.1995708,44.2996353,-108.2009198,-108.1982218,44.29828632,44.30098428,185
"GLENDIVE, DAWSON CO, Montana, UNITED STATES","Glendive, Dawson County, Montana, United States, 59330",-104.7107931,47.106401,-104.7395681,-104.6765429,47.084034,47.136767,3310
"GLENDIVE, T14N,455E,TOP MEMBER OF PIERRE FM, DARK GREY SH WITH CONCRETIONS, DAWSON CO, Montana, UNITED STATES","Glendive, Dawson County, Montana, United States, 59330",-104.7107931,47.106401,-104.7395681,-104.6765429,47.084034,47.136767,3310
"Phoenixville Tunnel, Pennsylvania, Pennsylvania, United States","Phoenixville, Chester County, Pennsylvania, United States, 19460",-75.5149128,40.1303822,-75.5472439,-75.4997281,40.116694,40.160136,3147
"ORGON, BOUCHES-DU-RHONE, FRANCE","Orgon, Bouches-du-Rhone, Provence-Alpes-Côte d'Azur, France",5.0289233,43.7924099,4.968059,5.0907531,43.7488998,43.8199883,5843
"HAJULA, 22 MI NE OF BEIRUT, LEBANON","Beirut, Beirut, Beirut Governorate, Lebanon",35.5017767,33.8937913,35.4669284,35.5416362,33.8623275,33.9161091,4441
"ABEIH, OLIVE LOCALITY, LEBANON",Lebanon,35.862285,33.854721,35.0711001,36.62372,33.0550256,34.69209,115228
"Walnut Creek, Concoru. Quad, California, California, United States","Walnut Creek, Contra Costa County, California, United States",-122.0651819,37.9100783,-122.100011,-121.9806059,37.842497,37.946321,8103
"Pittsburg Bluff, Columbia Co., Oregon, Columbia, Oregon, United States","Pittsburg, Columbia County, Oregon, United States, 97064",-123.15111,45.90083,-123.152459,-123.149761,45.89948102,45.90217898,183
"Walnut Creek, Concord Quad, California, California, United States","Walnut Creek, Contra Costa County, California, United States",-122.0651819,37.9100783,-122.100011,-121.9806059,37.842497,37.946321,8103
"500' S. Of Jump-Off Joe, Near Newport, Lncoln Co., Oregon, Lincoln, Oregon, United States","Jumpoff Joe, Newport, Lincoln County, Oregon, United States",-124.0626174,44.6453946,-124.0639664,-124.0612684,44.64404562,44.64674358,184
"COPENHAGEN, UPPER PART OF FM, LEWIS CO, NEW YORK, UNITED STATES OF AMERICA","Copenhagen, Denmark, Lewis County, New York, United States, 13626",-75.6735259,43.8934013,-75.6869039,-75.6590341,43.8814771,43.905214,1706
"MOOSE CREEK, W OF STATE HIGHWAY, LEWIS CO, NEW YORK, UNITED STATES OF AMERICA","Lewis County, New York, United States",-75.4344727,43.840112,-75.8509141,-75.110681,43.4198151,44.2179209,49356
"Quarry On Kirker Pass Road, Pittsburg, California, California, United States","Kirker Pass Road, Pittsburg, Contra Costa County, California, United States",-121.8961863,37.9899254,-121.8989774,-121.8958009,37.9828145,37.9980992,826
"Riggs Can., Near Mt. Diablo, California, California, United States","Mount Diablo, Contra Costa County, California, United States, 94598",-121.9141528,37.8815913,-121.9156653,-121.9129674,37.88030912,37.88300708,189
"Quarry On Kirker Pass Road, Near Pittsburg, California, California, United States","Kirker Pass Road, Pittsburg, Contra Costa County, California, United States",-121.8961863,37.9899254,-121.8989774,-121.8958009,37.9828145,37.9980992,826
"Martinez, California, California, United States","Martinez, Contra Costa County, California, United States, 94553",-122.1341321,38.0193657,-122.1584959,-122.075162,37.953557,38.047008,6018
"Panoche Greek, S. Side, Near Silver Creek, California, California, United States","Panoche, San Benito County, California, United States, 95043",-120.8337116,36.5969274,-120.8350606,-120.8323626,36.59557842,36.59827638,192
"Reef Ridge, E Side  Big Tar Canyon, California, United States","Big Tar Canyon, Kings County, California, United States",-120.164307,35.9413471,-120.165656,-120.162958,35.93999812,35.94269608,193
"Pine Can., Mt. Diablo, California, California, United States","Mount Diablo, Contra Costa County, California, United States, 94598",-121.9141528,37.8815913,-121.9156653,-121.9129674,37.88030912,37.88300708,189
"E. End, Vallecitoas, California, California, United States","Vallecito, Calaveras County, California, United States",-120.4735322,38.0901992,-120.485258,-120.448057,38.063112,38.102579,2623
"Reef Ridge, California, California, United States","Ridge, Mendocino County, California, United States, 95490",-123.3,39.33667,-123.301349,-123.298651,39.33532102,39.33801898,190
"Reef Ridege, E. Side Big Tar Canyon, California, California, United States","California, United States",-119.4179324,36.778261,-124.482003,-114.131211,32.528832,42.009503,661399
"N. Of Coalinga, California, California, United States","Coalinga, Fresno County, California, United States, 93210",-120.3601496,36.139678,-120.3756301,-120.2356821,36.1153621,36.180171,3037
