originalPlace,interpretedPlace,longitude,latitude,xmin,xmax,ymin,ymax,uncertainty
"Rouen, Normandy, France","Rouen, Seine-Maritime, Normandy, France",1.0984309,49.4435261,1.0302484,1.1521206,49.4172245,49.4652469,4581
"Aust Cliff, Gloucestershire, England, Northern Europe","Aust, Bristol, South Gloucestershire, England, United Kingdom, BS35",-2.6202643,51.5991956,-2.6319965,-2.6120765,51.5945564,51.6018238,638
"Redland, Bristol, Avon, England, Northern Europe","Redland, Bristol, Bristol City, England, United Kingdom",-2.6062403,51.4677204,-2.6159402,-2.593241,51.4608002,51.4785665,1023
"Macon, Saone et Loire, France","Mâcon, Saône-et-Loire, Bourgogne-Franche-Comté, France, 71000",4.8293535,46.3079587,4.7579899,4.8586816,46.2734283,46.3796478,6706
"France, Western Europe",France,2.213749,46.227638,-109.2967524,11.4548613,10.2676819,51.3682119,886364
"Beuval, Somme, France, Western Europe","Beauval, Somme, Hauts-de-France, France, 80630",2.329942,50.106062,2.2897654,2.3725315,50.06746,50.1364723,4552
"Redland, Bristol, Gloucestershire, England, Northern Europe","Redland, Bristol, Bristol City, England, United Kingdom",-2.6062403,51.4677204,-2.6159402,-2.593241,51.4608002,51.4785665,1023
"Monhoulien, Herault, France, England, Northern Europe","Hérault, Occitanie, France",3.2583626,43.5912356,2.5395564,4.1945463,43.2102012,43.9727532,71991
"Essen, Germany, Western Europe","Essen, Mettmann, Düsseldorf, North Rhine-Westphalia, Germany, 45",7.0224632,51.4575573,6.8943602,7.1376762,51.3476021,51.5342124,11694
"Escales, Aude, Occitaine, France, Western Europe","Escales, Aude, Occitanie, France, 11200",2.696366,43.223945,2.6777091,2.7289919,43.2060322,43.2403331,2502
"Ciply, Var., France, Western Europe","Ciply, Mons, Hainaut, Wallonia, Belgium",3.9462109,50.4219839,3.9291888,3.9588847,50.4032162,50.4233482,913
"Malplaquet, France, Western Europe","Taisnières-sur-Hon, Nord, Hauts-de-France, France, 59570",3.839768,50.318349,3.8053801,3.8904682,50.2990246,50.3477688,3259
"Breteuil, Oise, France, Western Europe","Breteuil, Oise, Hauts-de-France, France, 60120",2.29562,49.6340519,2.2347666,2.3401235,49.6116503,49.6603748,4348
"Tarrant County, Texas, USA, NORTH AND CENTRAL AMERICA","Tarrant County, Texas, United States",-97.3516558,32.7732044,-97.550582,-97.031007,32.548666,32.994194,31117
"Chocktaw Creek, Texas, USA, NORTH AND CENTRAL AMERICA","Choctaw Creek, United States",-96.53454413,33.6472953,-96.7065914,-96.3624968,33.5514404,33.7431502,19170
"Benbrook, Texas, USA, NORTH AND CENTRAL AMERICA","Benbrook, Tarrant County, Texas, United States",-97.4605759,32.673188,-97.5039981,-97.411845,32.6458199,32.723728,5080
"Austin, Texas, USA, NORTH AND CENTRAL AMERICA","Austin, Travis County, Texas, United States",-97.7430608,30.267153,-97.938354,-97.5275861,30.075576,30.5166519,28370
"Trouville, France, Western Europe","Trouville-sur-Mer, Calvados, Normandy, France",0.082808,49.366289,0.0752546,0.1319579,49.3554574,49.3898033,1324
"Shennan, Texas, USA, NORTH AND CENTRAL AMERICA","Texas, United States",-99.9018131,31.9685988,-106.6456461,-93.5080389,25.8371165,36.5011261,774098
"Cagny, Calvados, Normandy, France, Western Europe","Cagny, Calvados, Normandy, France, 14630",-0.255309,49.147306,-0.2896796,-0.2348055,49.1380904,49.1684049,2709
"Nogent-le-Rotrou, France, Western Europe","Nogent-le-Rotrou, Eure-et-Loir, Centre-Val de Loire, France, 28400",0.8217777,48.321344,0.7556895,0.8585432,48.2898262,48.3495471,4155
"Varennes, Meuse, France, Western Europe","Varennes-en-Argonne, Meuse, Grand Est, France, 55270",5.033516,49.226297,4.9775843,5.0486909,49.208424,49.2513096,2993
"Denton County, Texas, USA, NORTH AND CENTRAL AMERICA","Denton County, Texas, United States",-97.179026,33.1418611,-97.398459,-96.8341099,32.987435,33.4304501,26706
"San Pedro Spr, San Antonio, Texas, USA, NORTH AND CENTRAL AMERICA","Suite 108, 2251, Broadway, Westfort Alliance, San Antonio, Bexar County, Texas, United States, 78215",-98.475932,29.446757,-98.47708758,-98.47438962,29.44574032,29.44843828,159
"Les basses Vienne, Nouvelle-Aquitaine, France, Western Europe","Basses, Vienne, Nouvelle-Aquitaine, France, 86200",0.118803,47.035894,0.1014837,0.1517932,47.0236482,47.064716,1894
"Vienne, Nouvelle-Aquitaine, France, Western Europe","Vienne, Nouvelle-Aquitaine, France",0.4772865,46.6695417,-0.1050271,1.213222,46.0482628,47.1759905,79446
"Haute Garonne, France, Western Europe","Haute-Garonne, Occitanie, France",1.135302,43.4010462,0.4416817,2.0483036,42.6891759,43.9215181,93633
"Hilston, Texas, USA, NORTH AND CENTRAL AMERICA","Hilton, Sherman, Grayson County, Texas, United States, 75092",-96.6208243,33.570663,-96.62217328,-96.61947532,33.56931402,33.57201198,195
"Latrecy, Haute Marne, France, Western Europe","Haute-Marne, Grand Est, France",5.1071322,48.1260968,4.6266139,5.8909434,47.5765526,48.6893027,70899
"Le Simon La Vineuse, Vendee, Pays de Loire, France, Western Europe","Simon-la-Vineuse, Sainte-Hermine, Vendee, Pays de la Loire, France, 85210",-1.087236,46.56255,-1.08858498,-1.08588702,46.56120102,46.56389898,182
"May sur Orne, Calvados, Normandy, France, Western Europe","May-sur-Orne, Calvados, Normandy, France, 14320",-0.374753,49.101101,-0.3934757,-0.3610684,49.0848424,49.1080008,1260
"Faxe, Denmark, Northern Europe","Faxe, Denmark, 4640",12.11381,55.255138,12.0412542,12.2868399,55.1335228,55.3124215,12710
"Charlos sur Vesle, Marne, France, Western Europe",NA,NA,NA,NA,NA,NA,NA,NA
"Cuise la Motte, Oise, France, Western Europe","Cuise-la-Motte, Oise, Hauts-de-France, France, 60350",3.006905,49.386771,2.9694389,3.034374,49.3698486,49.4072569,3028
"Houdan, Ile de France, France, Western Europe","Houdan, Yvelines, Île-de-France, France, 78550",1.601126,48.789808,1.5753972,1.6207395,48.7737488,48.8198393,2601
"Bois Gouet, Western Europe, Loire-Atlantique, France, Western Europe","Le Bois Gouet, Saffré, Loire-Atlantique, Pays de la Loire, France, 44390",-1.610587,47.486434,-1.61193598,-1.60923802,47.48508502,47.48778298,181
"Vicksburg, Mississipi NORTH AND CENTRAL AMERICA","Vicksburg, Parish Governing Authority District 1, Warren County, Mississippi, United States",-90.877882,32.3526456,-90.9517351,-90.8189079,32.2233941,32.428079,10038
"Veyrin, Isere, France, Western Europe","Veyrins-Thuellin, Les Avenières Veyrins-Thuellin, Isère, Auvergne-Rhône-Alpes, France, 38630",5.539128,45.626513,5.4984848,5.5674206,45.6109072,45.654026,3613
"Quaranta, Herault, France, Western Europe","Hérault, Occitanie, France",3.2583626,43.5912356,2.5395564,4.1945463,43.2102012,43.9727532,71991
"St. Come, Gironde, France, Western Europe","Saint-Côme, Gironde, Nouvelle-Aquitaine, France, 33430",-0.182137,44.42459,-0.1998364,-0.1481611,44.4116733,44.4382122,2012
"Leognan, Gironde, France, Western Europe","Léognan, Gironde, Nouvelle-Aquitaine, France, 33850",-0.59709,44.727859,-0.6733887,-0.5609845,44.6837369,44.7633744,4874
"Clariborne, Alabama, USA, NORTH AND CENTRAL AMERICA","Claiborne, Monroe County, Alabama, United States, 36445",-87.5155464,31.5401611,-87.51689538,-87.51419742,31.53881212,31.54151008,197
"Villedrant, Gironde, France, Western Europe","Gironde, Nouvelle-Aquitaine, France",-0.4502368,44.849665,-1.2609782,0.3151236,44.1938882,45.604882,97285
"Pontpourquey, Gironde, France, Western Europe","Pont-Pourquey, 43, Route du Médoc, Saucats, Gironde, Nouvelle-Aquitaine, France, 33650",-0.609461,44.650373,-0.61040988,-0.60771192,44.64887772,44.65157568,182
"Le Coquillat, Gironde, France, Western Europe","Le Coquillat, Léognan, Gironde, Nouvelle-Aquitaine, France, 33850",-0.609683,44.720053,-0.61103198,-0.60833402,44.71870402,44.72140198,184
"Ause la Motte, France, Western Europe",NA,NA,NA,NA,NA,NA,NA,NA
"Pussenquier, Herault, France, Western Europe","Hérault, Occitanie, France",3.2583626,43.5912356,2.5395564,4.1945463,43.2102012,43.9727532,71991
"Cerois, Ariege, France, Western Europe","Ariège, Occitanie, France",1.443469,42.9326292,0.8259955,2.1758616,42.5714741,43.3162055,64537
"Lebanon, Middle East",Lebanon,35.862285,33.854721,35.0711001,36.62372,33.0550256,34.69209,115228
"Prairie Bluff, Alabama, USA, NORTH AND CENTRAL AMERICA","Prairie Bluff, Wilcox County, Alabama, United States, 36720",-87.4036071,32.1343111,-87.40495608,-87.40225812,32.13296212,32.13566008,196
"Chalons sur Vesle, Marne, France, Western Europe","Châlons-sur-Vesle, Marne, Grand Est, France, 51140",3.918171,49.289288,3.8974661,3.9421183,49.2763338,49.2986005,2027
"Grignon, Seine et Oise, France, Western Europe","Thiverval-Grignon, Yvelines, Île-de-France, France, 78850",1.9177,48.849581,1.8935793,1.9708222,48.8230717,48.8608028,3439
"Parnes, Oise, France, Western Europe","Parnes, Oise, Hauts-de-France, France",1.738355,49.203252,1.7148676,1.7768646,49.1745913,49.2236686,3609
"Jonquires, Aude, France, Western Europe","Jonquières, Aude, Occitanie, France, 11220",2.729057,43.039532,2.6958735,2.7570691,43.0222603,43.0618742,3316
"Bois Gouet, Pays de la Loire,  Loire-Atlantique, France, Western Europe","Le Bois Gouet, Saffré, Loire-Atlantique, Pays de la Loire, France, 44390",-1.610587,47.486434,-1.61193598,-1.60923802,47.48508502,47.48778298,181
"Bercheres Eure et Loire, France, Western Europe","Berchères-les-Pierres, Eure-et-Loir, Centre-Val de Loire, France, 28630",1.5524119,48.384818,1.5236125,1.5953151,48.3464811,48.4051951,3902
"Mouchy, Oise, France, Western Europe","Mouchy-le-Châtel, Oise, Hauts-de-France, France",2.249302,49.3264629,2.2248746,2.271281,49.3121609,49.3386279,2093
"Port Royal, South Carolina, USA, NORTH AND CENTRAL AMERICA","Port Royal, Beaufort County, South Carolina, United States",-80.6926069,32.3790843,-80.844125,-80.656803,32.300071,32.4168651,5376
"Morigny, Essonne, France, Western Europe","Morigny-Champigny, Essonne, Île-de-France, France",2.181743,48.446833,2.1568842,2.2481431,48.3962226,48.4803827,5921
"Etampes, Paris, Essone, France, Western Europe","Étampes, Essonne, Île-de-France, France, 91150",2.16142,48.434416,2.0713708,2.2335037,48.3822841,48.4631872,6219
"Pierrefitte, Ile de France, France, Western Europe","Pierrefitte-sur-Seine, Pierrefitte-sur-Seine, Seine-Saint-Denis, Île-de-France, France, 93380",2.364077,48.967903,2.3516006,2.3757264,48.9467875,48.9740281,1092
"Monte Grumi, Venetia, Italy, Southern Europe","Grumi, Castelgomberto, Province of Vicenza, Veneto, Italy, 36070",11.4015347,45.5782242,11.3997267,11.4041044,45.5769543,45.5798765,200
"Berscubruck, Hanover, Germany, Western Europe","Hanover, Hanover Region, Lower Saxony, Germany, 30",9.7320104,52.3758916,9.6044352,9.9185077,52.304911,52.4544218,11747
"Maubis la Cabonne, Landes, Aquitaine, France, Western Europe","Landes, Nouvelle-Aquitaine, France",-0.7532809,43.9412045,-1.5235994,0.1367626,43.4874111,44.5323684,79975
"Laricy, Gironde, France, Western Europe","Gironde, Nouvelle-Aquitaine, France",-0.4502368,44.849665,-1.2609782,0.3151236,44.1938882,45.604882,97285
"Labrede, Gironde, France, Western Europe","La Brède, Gironde, Nouvelle-Aquitaine, France, 33650",-0.5273211,44.6820186,-0.5940687,-0.4850655,44.6563754,44.6989321,3841
"Casenovo, Gironde, France, Western Europe","Gironde, Nouvelle-Aquitaine, France",-0.4502368,44.849665,-1.2609782,0.3151236,44.1938882,45.604882,97285
"Pont-le-Voy, Loir-et-Cher, France, Western Europe","Pontlevoy, Loir-et-Cher, Centre-Val de Loire, France, 41400",1.254324,47.390249,1.178635,1.2843403,47.3556068,47.4490308,6893
"Sheppy, Kent, England, Northern Europe","Isle of Sheppey, England, United Kingdom",0.8365233,51.3964896,0.7214186,0.9509641,51.3544831,51.4478442,9278
"Trouville, Calvados, Normandy, France, Western Europe","Trouville-sur-Mer, Calvados, Normandy, France",0.082808,49.366289,0.0752546,0.1319579,49.3554574,49.3898033,1324
"Chambors, Oise, France, Western Europe","Chambors, Oise, Hauts-de-France, France, 60240",1.815147,49.260129,1.789432,1.8370812,49.2451652,49.2740805,2226
"Cairo, Egypt, AFRICA","Cairo, Cairo Governorate, Egypt",31.2357116,30.0444196,31.2149558,31.3019729,30.0083745,30.1106024,4469
"Jackson, Mississipi, USA, NORTH AND CENTRAL AMERICA","Jackson, Hinds County, Mississippi, United States",-90.18065,32.2981392,-90.329895,-90.05567,32.1954599,32.412656,17311
"Puysserquier, Herault, France, Western Europe","Hérault, Occitanie, France",3.2583626,43.5912356,2.5395564,4.1945463,43.2102012,43.9727532,71991
"Pointpourquey, Gironde, France, Western Europe","Gironde, Nouvelle-Aquitaine, France",-0.4502368,44.849665,-1.2609782,0.3151236,44.1938882,45.604882,97285
"Sancats, Gironde, France, Western Europe","Gironde, Nouvelle-Aquitaine, France",-0.4502368,44.849665,-1.2609782,0.3151236,44.1938882,45.604882,97285
"Grignon, Paris Basin, France, Western Europe","Paris, Paris, Île-de-France, France",2.3513765,48.8575475,2.2242171,2.4698511,48.8155622,48.9021476,10006
"Chamount, Oise, France, Northern Europe","Chaumont-en-Vexin, Oise, Hauts-de-France, France, 60240",1.882324,49.2621619,1.837516,1.9281483,49.2485342,49.2981183,3597
"Tongres, Belgium, Western Europe","Tongeren, Tongeren-Borgloon, Limburg, Flanders, Belgium, 3700",5.4607492,50.7822072,5.3889745,5.5529555,50.7201581,50.8223548,7887
"Mt. Grumi, Venetia, Italy, Southern Europe","Grumi, Castelgomberto, Province of Vicenza, Veneto, Italy, 36070",11.4015347,45.5782242,11.3997267,11.4041044,45.5769543,45.5798765,200
"Blue Anchor, Somerset, England, Northern Europe","Blue Anchor, Minehead, Somerset, England, United Kingdom, TA24",-3.3931073,51.1807179,-3.407768,-3.3834537,51.1765181,51.183158,728
"Aust Cliff, Gloscestershire, England, Northern Europe","Aust, Bristol, South Gloucestershire, England, United Kingdom, BS35",-2.6202643,51.5991956,-2.6319965,-2.6120765,51.5945564,51.6018238,638
"Camberjon, Haute Saone, France, Western Europe","Haute-Saône, Bourgogne-Franche-Comté, France",6.1556282,47.7569806,5.3669355,6.8249356,47.252542,48.0241356,58203
"Le Plan, Haute Garonne, France, Western Europe","Le Plan, Haute-Garonne, Occitanie, France, 31220",1.1202129,43.167117,1.0958775,1.1532684,43.1441098,43.1820162,3157
"Le Fayel, Seine et Oise, France, Western Europe","Le Fayel, Oise, Hauts-de-France, France, 60680",2.7006579,49.370308,2.6821241,2.7106142,49.3632865,49.382476,1534
"Chaumont, Haute-Marne, France, Western Europe","Chaumont, Haute-Marne, Grand Est, France, 52000",5.1392559,48.113748,5.0832297,5.2619153,48.0356899,48.1405115,9604
"Villiers, Vienne, France, Western Europe","Villiers, Vienne, Nouvelle-Aquitaine, France",0.1733993,46.6752318,0.1470092,0.1988622,46.6510724,46.692525,2737
"Mouchy, Bourgogne, France, Western Europe","Mouchy, Moraches, Nièvre, Bourgogne-Franche-Comté, France, 58420",3.54662,47.295183,3.54527102,3.54796898,47.29383402,47.29653198,181
"Crepy en Valois, Oise, France, Western Europe","Crépy-en-Valois, Oise, Hauts-de-France, France, 60800",2.890059,49.2361549,2.8634131,2.9362735,49.2131353,49.2601015,3213
"Chenay, Marne, France, Western Europe","Chenay, Marne, Grand Est, France, 51140",3.929584,49.298061,3.9112001,3.9405804,49.2881369,49.3163334,1734
"Bois Gouet,  Loire-Atlantique, France, Western Europe","Le Bois Gouet, Saffré, Loire-Atlantique, Pays de la Loire, France, 44390",-1.610587,47.486434,-1.61193598,-1.60923802,47.48508502,47.48778298,181
"Ezauville, Seine et Oise, France, Western Europe","Oise, France",3.135554448,49.50371648,2.0174732,4.2536357,48.9817507,50.0256823,99291
"Coustouge, Aude, France, Western Europe","Coustouge, Aude, Occitanie, France, 11220",2.74386,43.0478049,2.7191295,2.765788,43.0379641,43.0717453,2293
"Tabrezan, Aude, France, Western Europe","Aude, Occitanie, France",2.3813621,43.0724667,1.6884309,3.2401477,42.648901,43.4600545,73627
"Tabrezan, Ande, France, Western Europe",France,2.213749,46.227638,-109.2967524,11.4548613,10.2676819,51.3682119,886364
"Liancourt, Oise, France, Western Europe","Liancourt, Oise, Hauts-de-France, France, 60140",2.468027,49.329255,2.4448433,2.4862995,49.3155984,49.3436932,2084
"Fontcourverte, Aude, France, Western Europe","Fontcouverte, Aude, Occitanie, France, 11700",2.690116,43.16859,2.6623676,2.7185007,43.1534891,43.1851285,2812
"Bois Gouet, Loire-Atlantique, France, Western Europe","Le Bois Gouet, Saffré, Loire-Atlantique, Pays de la Loire, France, 44390",-1.610587,47.486434,-1.61193598,-1.60923802,47.48508502,47.48778298,181
"Barroubio, Herault, France, Western Europe","Barroubio, Saint-Jean-de-Minervois, Hérault, Occitanie, France, 34360",2.854711,43.393779,2.85336202,2.85605998,43.39243002,43.39512798,185
"Le Guespelle, Sables Moyennes, France, Western Europe","Moyen, Meurthe-et-Moselle, Grand Est, France, 54118",6.569206,48.483372,6.5356304,6.6507166,48.4635772,48.5219167,3318
"Ver, France, Western Europe","Ver, Manche, Normandy, France, 50450",-1.3937679,48.8932069,-1.4204275,-1.3505484,48.8779336,48.9165741,2590
"Argenteuil, France, Western Europe","Argenteuil, Val-d'Oise, Île-de-France, France, 95100",2.2466847,48.9472096,2.2033193,2.2922147,48.9277326,48.9724213,3845
"Caunelles, Herault, France, Western Europe","Caunelles, Juvignac, Hérault, Occitanie, France, 34990",3.810677,43.620508,3.80932802,3.81202598,43.61915902,43.62185698,185
"Chalons sur Vesle, Marne, France, western Europe","Châlons-sur-Vesle, Marne, Grand Est, France, 51140",3.918171,49.289288,3.8974661,3.9421183,49.2763338,49.2986005,2027
"Hermonville, Marne, France, Western Europe","Hermonville, Marne, Grand Est, France, 51220",3.908621,49.3355,3.8810281,3.9531539,49.315328,49.3493983,3009
"Puyssenquier, Herault, France, Western Europe","Hérault, Occitanie, France",3.2583626,43.5912356,2.5395564,4.1945463,43.2102012,43.9727532,71991
"Merignac, Gironde, France, Western Europe","Mérignac, Gironde, Nouvelle-Aquitaine, France, 33700",-0.656358,44.8448769,-0.7570818,-0.6068492,44.7997815,44.8627539,4389
"Pontpourquey, Gironde, France, western Europe","Pont-Pourquey, 43, Route du Médoc, Saucats, Gironde, Nouvelle-Aquitaine, France, 33650",-0.609461,44.650373,-0.61040988,-0.60771192,44.64887772,44.65157568,182
"Beaucels, Herault, France, Western Europe","Beaucel, Saint-Ganton, Ille-et-Vilaine, Bretagne, France, 35550",-1.874882,47.768256,-1.87623098,-1.87353302,47.76690702,47.76960498,181
"Parnes, Oise, France, Northern Europe","Parnes, Oise, Hauts-de-France, France",1.738355,49.203252,1.7148676,1.7768646,49.1745913,49.2236686,3609
"St. Chinian, Herault, France, Westerrn Europe","Saint-Chinian, Hérault, Occitanie, France, 34360",2.945129,43.418646,2.8843647,2.9707797,43.3882922,43.4665119,5709
"Chataigniers, Herault, France, Western Europe","La Châtaignière, Saint-Méard-de-Gurçon, Dordogne, Nouvelle-Aquitaine, France, 24610",0.199063,44.914434,0.19771402,0.20041198,44.91308502,44.91578298,184
"Homowack, New York USA, NORTH AND CENTRAL AMERICA","New York, New York, United States",-74.0059728,40.7127753,-74.258843,-73.700169,40.476578,40.917705,33854
"Dabuque, Iowa, USA","Dubuque, Dubuque County, Iowa, United States",-90.6677479,42.5063629,-90.8240261,-90.6358352,42.409285,42.5578554,6292
"Hopewell, New York, USA, NORTH AND CENTRAL AMERICA","Hopewell, Ontario County, New York, United States",-77.1715228,42.8955404,-77.2459839,-77.1309239,42.85491,42.945142,6430
"Randerston, Fife, Scotland, Northern Europe","Fife, Scotland, United Kingdom",-3.1495175,56.2082078,-3.7394067,-2.5446682,56.0058319,56.4532634,43068
"Redland, Bristol, England, Northern Europe","Redland, Bristol, Bristol City, England, United Kingdom",-2.6062403,51.4677204,-2.6159402,-2.593241,51.4608002,51.4785665,1023
"le Mas de Bouysson, Herault, France, Western Europe","Mas de Bouyssou, Saint-Sozy, Lot, Occitanie, France, 46200",1.548135,44.880365,1.54678602,1.54948398,44.87901602,44.88171398,184
"Montmajon, Herault, France, Western Europe","Hérault, Occitanie, France",3.2583626,43.5912356,2.5395564,4.1945463,43.2102012,43.9727532,71991
"Camberjon, The. Saone, France, Western Europe","Saône, France",5.382812523,46.88173632,4.7027792,6.0628459,45.7169617,48.0465109,139278
"Redland, Bristol, Avon, England, Northern Europe, ","Redland, Bristol, Bristol City, England, United Kingdom",-2.6062403,51.4677204,-2.6159402,-2.593241,51.4608002,51.4785665,1023
"Aust, Gloucestershire, England, Northern Europe","Aust, Bristol, South Gloucestershire, England, United Kingdom, BS35",-2.6202643,51.5991956,-2.6319965,-2.6120765,51.5945564,51.6018238,638
"Bellegarde, Ain, France, Western Europe","Bellegarde-sur-Valserine, Valserhône, Ain, Auvergne-Rhône-Alpes, France, 01200",5.826179,46.107599,5.7893093,5.8677304,46.0785172,46.1368362,4310
"La Balme de Rancusel, Isere, France, Western Europe","La Balme-les-Grottes, Isère, Auvergne-Rhône-Alpes, France, 38390",5.337346,45.851802,5.2905349,5.3487307,45.8131158,45.8738435,2605
"Camberjohn, Haute Saone, France, Western Europe","Haute-Saône, Bourgogne-Franche-Comté, France",6.1556282,47.7569806,5.3669355,6.8249356,47.252542,48.0241356,58203
"Camberjohn, Haute saone, France, Western Europe","Haute-Saône, Bourgogne-Franche-Comté, France",6.1556282,47.7569806,5.3669355,6.8249356,47.252542,48.0241356,58203
Lebanon,Lebanon,35.862285,33.854721,35.0711001,36.62372,33.0550256,34.69209,115228
"Fouzilhon, Herault, Occitaine, France, Western Europe","Fouzilhon, Hérault, Occitanie, France, 34480",3.244396,43.501335,3.221523,3.2585436,43.4927637,43.5262951,2081
"Macon, France, Western Europe","Mâcon, Saône-et-Loire, Bourgogne-Franche-Comté, France, 71000",4.8293535,46.3079587,4.7579899,4.8586816,46.2734283,46.3796478,6706
"Camberjon, The Saone, France, Western Europe","Saône, France",5.382812523,46.88173632,4.7027792,6.0628459,45.7169617,48.0465109,139278
"St. Pezenne, Deux Sevres, Frace, Western Europe","Sainte-Pezenne, Niort, Deux-Sèvres, Nouvelle-Aquitaine, France, 79000",-0.474515,46.349737,-0.47586398,-0.47316602,46.34838802,46.35108598,182
"Calloneghe, Lago di scoce, France, Western Europe","Lagos, Pyrénées-Atlantiques, Nouvelle-Aquitaine, France, 64800",-0.22327,43.209729,-0.2518056,-0.1949681,43.1997857,43.226431,2569
"Bembrook, Texas, USA, NORTH AND CENTRAL AMEWRICA","Benbrook, Tarrant County, Texas, United States",-97.4605759,32.673188,-97.5039981,-97.411845,32.6458199,32.723728,5080
"Tarrant County Texas, USA, NORTH AND CENTRAL AMERICA","Tarrant County, Texas, United States",-97.3516558,32.7732044,-97.550582,-97.031007,32.548666,32.994194,31117
"Dives, Calvados, France, Western Europe","Dives-sur-Mer, Calvados, Normandy, France, 14160",-0.100024,49.28656,-0.1150614,-0.0638299,49.2677702,49.29584,2359
"Denton County Texas, USA, NORTH AND CENTRAL AMERICA","Denton County, Texas, United States",-97.179026,33.1418611,-97.398459,-96.8341099,32.987435,33.4304501,26706
"Hundorf, Bohemia, Czech Republic, Central Europe","Bohemia, Prague 1, Hlavní město Praha, Prague, Czechia, 110 00",14.4328744,50.0850736,14.43152542,14.43422338,50.08372462,50.08642258,178
"St. Pezenne, Deux Serves, France, Western Europe","Sainte-Pezenne, Niort, Deux-Sèvres, Nouvelle-Aquitaine, France, 79000",-0.474515,46.349737,-0.47586398,-0.47316602,46.34838802,46.35108598,182
"Neuilly en Verin, Ile de France, France, Western Europe","Neuilly-sur-Seine, Hauts-de-Seine, Île-de-France, France",2.2674317,48.8848172,2.2457038,2.2845383,48.874081,48.8983982,1963
"Noaillan la Saubotte, Gironde, France, Western Europe","La Saubotte, Noaillan, Gironde, Nouvelle-Aquitaine, France, 33730",-0.359161,44.492823,-0.36050998,-0.35781202,44.49147402,44.49417198,184
"Klein Spawen, Belgium, Western Europe",Belgium,4.469936,50.503887,2.5240999,6.4081,49.4969518,51.5051242,175814
"Guex Marne, France, Western Europe","Marne, Grand Est, France",4.1475445,49.128754,3.3958859,5.0396806,48.5152405,49.4078194,71964
"Ferme de l'Orme, France, Western Europe","Ferme de l'Orme, Beynes, Yvelines, Île-de-France, France, 78650",1.850983,48.838084,1.84963402,1.85233198,48.83673502,48.83943298,180
"Belmont, New York State, USA, NORTH AND CENTRAL AMERICA","Belmont, Amity, Allegany County, New York, United States, 14813",-78.0344506,42.2231241,-78.0458871,-78.019534,42.2129849,42.232289,1470
"Grignon, Paris, France, Western Europe","Paris, Paris, Île-de-France, France",2.3513765,48.8575475,2.2242171,2.4698511,48.8155622,48.9021476,10006
"Soudley, Church Stretton, Shropshire, England, Northern Europe","Soudley, Market Drayton, Shropshire, England, United Kingdom, TF9",-2.407774,52.856322,-2.4119491,-2.4005673,52.8537788,52.8601684,399
"Wasioya, Minnesota, USA, Northern America","Wasioja, Wasioja Township, Dodge County, Minnesota, United States, 55927",-92.8190142,44.0804896,-92.82036318,-92.81766522,44.07914062,44.08183858,185
"Rorrington, Shropshire, England, Northern Europe","Rorrington, Montgomery, Shropshire, England, United Kingdom, SY15 6BX",-3.032615,52.600267,-3.03396398,-3.03126602,52.59891802,52.60161598,176
"Lleyn Peninsula, Caernarfonshire, Wales, Northern Europe","Stryd Llyn, Caernarfon, Gwynedd, Cymru, United Kingdom, LL55",-4.2724778,53.139515,-4.2739485,-4.2711543,53.13818157,53.14087953,176
"Ffestiniog, Merionethshire, Wales, Northern Europe","Ffestiniog, Blaenau Ffestiniog, Gwynedd, Wales, United Kingdom, LL41 4LU",-3.933458,52.959065,-3.93480698,-3.93210902,52.95771602,52.96041398,175
"Porth-y-rhaw, St David's, Pembrokeshire, Wales, Northern Europe","Solva, Haverfordwest, Pembrokeshire, Wales, United Kingdom, SA62 6UH",-5.216098,51.8723075,-5.21645078,-5.21375282,51.87219182,51.87488978,27
"Craighead, Girvan, Ayrshire, Scotland, Northern Europe","76F9+VH, Girvan, South Ayrshire, Scotland, United Kingdom, KA26 9QG",-4.78109,55.27472,-4.78193068,-4.77923272,55.27327117,55.27596913,170
"Dynevork Park, Llandeilo, Carmarthenshire, Wales, Northern Europe","Llandeilo, Llandeilo, Carmarthenshire, Wales, United Kingdom, SA19",-3.99143,51.88469,-4.0112414,-3.9840285,51.8759776,51.9004195,1674
"Minneapolis, Minnesota, USA, Northern America","Minneapolis, Hennepin County, Minnesota, United States",-93.2650108,44.977753,-93.329163,-93.194042,44.889787,45.05125,9900
"Lower Wood, Betton, Salop, Shropshire, England, Northern Europe","Betton, Market Drayton, Shropshire, England, United Kingdom, TF9 4AA",-2.462095,52.922995,-2.46344398,-2.46074602,52.92164602,52.92434398,175
"Llandridod, Radnorshire, Wales, Northern Europe","Spa Road, Llandrindod Wells, Powys, Wales, United Kingdom, LD1 5EY",-3.3799429,52.2383798,-3.38135498,-3.37865702,52.23718167,52.23987963,165
"St Paul, Minneapolis, Minnesota, USA, Northern America","Saint Paul, Ramsey County, Minnesota, United States",-93.0899578,44.9537029,-93.207787,-93.004324,44.887399,44.992016,7985
"Gilvach, Narberth, Pembrokeshire, Wales, Northern Europe","Gilfach Road, Narberth, Pembrokeshire, Wales, United Kingdom, SA67",-4.6664874,51.7907873,-4.6713034,-4.6659499,51.7855143,51.7960234,584
"Marshbrook, Shropshire, England, Northern Europe","Marshbrook, Church Stretton, Shropshire, England, United Kingdom, SY6 6QE",-2.824202,52.503571,-2.82555098,-2.82285302,52.50222202,52.50491998,176
"Quarry on Llandeilo-Bethlehem Road, Carmarthenshire, Wales, Northern Europe","Bethlehem Road, Carmarthenshire, Wales, United Kingdom, SA19",-3.9359944,51.9033159,-3.9943472,-3.8778001,51.8744943,51.9338397,5140
"Balcletchie, Girvan, Ayrshire, Scotland, Northern Europe","Girvan, Girvan, South Ayrshire, Scotland, United Kingdom",-4.854218,55.240164,-4.8650235,-4.8384453,55.2254058,55.2555405,1781
"Herault, France, Western Europe","Hérault, Occitanie, France",3.2583626,43.5912356,2.5395564,4.1945463,43.2102012,43.9727532,71991
"Combes de Barroubio, Herault, France, Western Europe","Barroubio, Saint-Jean-de-Minervois, Hérault, Occitanie, France, 34360",2.854711,43.393779,2.85336202,2.85605998,43.39243002,43.39512798,185
"Sencels, St Chinian, Herault, France, Western Europe","Saint-Chinian, Hérault, Occitanie, France, 34360",2.945129,43.418646,2.8843647,2.9707797,43.3882922,43.4665119,5709
"Quarry west of Trefanty, St Clears, Carmarthonshire, Wales, Northern Europe","Saint Clears, Carmarthen, Carmarthenshire, Wales, United Kingdom",-4.498791,51.819341,-4.5615826,-4.4348811,51.7884499,51.8494269,5529
"Cincinnati, Ohio, USA, Northern America","Cincinnati, Hamilton County, Ohio, United States",-84.5120196,39.1031182,-84.7123951,-84.3695489,39.0520649,39.2211029,17978
"Acton Scott, Shropshire, England, Northern Europe","Acton Scott, Church Stretton, Shropshire, England, United Kingdom, SY6 6QQ",-2.79942,52.5013549,-2.80076898,-2.79807102,52.50000592,52.50270388,176
"Lake Chapman, New York, USA, Northern America","New York, New York, United States",-74.0059728,40.7127753,-74.258843,-73.700169,40.476578,40.917705,33854
"New York, USA, Northern America","New York, New York, United States",-74.0059728,40.7127753,-74.258843,-73.700169,40.476578,40.917705,33854
"Bowmanville, Durham County, Ontario, Canada, Northern America","Bowmanville, Clarington, Regional Municipality of Durham, Ontario, Canada",-78.6876283,43.9118739,-78.7307638,-78.6400174,43.8704215,43.9505722,5754
"Marion County, Kentucky, USA, Northern America","Marion County, Kentucky, United States",-85.2308414,37.585137,-85.5212899,-85.0301719,37.412038,37.7306579,23967
"High Bridge, Kentucky, USA, Northern America","High Bridge, Jessamine County, Kentucky, United States, 40390",-84.720489,37.823689,-84.7246761,-84.689018,37.815389,37.844179,992
"Le Mont Glauzy, Herault, France, Western Europe","Hérault, Occitanie, France",3.2583626,43.5912356,2.5395564,4.1945463,43.2102012,43.9727532,71991
"Pavlovsk, Russia, Eastern Europe","Pavlovsk, Saint Petersburg, Pushkinskiy, Санкт-Петербург, Saint Petersburg, Russia",30.4443763,59.6811976,30.393685,30.4910228,59.6494605,59.707121,3904
"Versailles, Kentucky, USA, Northern America","Versailles, Woodford County, Kentucky, United States, 40383",-84.7305058,38.0514897,-84.77018,-84.686322,38.023477,38.0725141,4526
"Coston Farm, Clunbury, Shropshire, England, Northern Europe","Clunbury, Craven Arms, Shropshire, England, United Kingdom, SY7 0HE",-2.925366,52.420347,-2.92671498,-2.92401702,52.41899802,52.42169598,176
"Lebanon, Kentucky, USA, Northern America","Lebanon, Marion County, Kentucky, United States, 40033",-85.2525819,37.5698914,-85.2927838,-85.2209663,37.5401423,37.6049869,4793
"Cynwyd, Wales, Northern Europe","Cynwyd, Corwen, Denbighshire, Wales, United Kingdom, LL21",-3.4011309,52.9585781,-3.4116988,-3.3963451,52.9552777,52.9623875,532
"Versailles, Indiana, USA, Northern America","Versailles, Johnson Township, Ripley County, Indiana, United States",-85.2519035,39.0719988,-85.272147,-85.242916,39.0453339,39.076307,913
"Horderley, Shropshire, England, Northern Europe","Horderley, Craven Arms, Shropshire, England, United Kingdom, SY7 8HP",-2.875045,52.476124,-2.87639398,-2.87369602,52.47477502,52.47747298,176
"Clairmont, Iowa, USA, Northern America","Clermont, Fayette County, Iowa, United States",-91.652374,43.0035912,-91.6651531,-91.6355419,42.990537,43.0076169,1443
"Pulkova, Russia, Eastern Europe","Pulkovo, Saint Petersburg, Moskovskiy, Санкт-Петербург, Saint Petersburg, Russia, 196140",30.3284014,59.7718473,30.32705242,30.32975038,59.77049832,59.77319628,168
"Fairy Gill, Cautley Inlier, Yorkshire, England, Northern Europe","Cautley, Sedbergh, Westmorland and Furness, England, United Kingdom, LA10 5LY",-2.4819939,54.340325,-2.48334288,-2.48064492,54.33897602,54.34167398,174
"Onny Section, Craven Arms, Shropshire, England, Northern Europe","River Onny, Shropshire, England, United Kingdom",-2.840558049,52.44442825,-2.9270351,-2.754081,52.3821251,52.5067314,9088
"Fillmore County, Minnesota, USA, Northern America","Fillmore County, Minnesota, United States",-92.0665197,43.6956298,-92.4496099,-91.730192,43.50044,43.848281,31952
"Leningrad, Russia, Eastern Europe","Saint Petersburg, Санкт-Петербург, Saint Petersburg, Russia",30.3609097,59.9310584,29.4247991,30.7645441,59.634086,60.246742,41732
"Warren County, Ohio, USA, Northern America","Warren County, Ohio, United States",-84.1857115,39.4241422,-84.3652321,-83.976987,39.2551119,39.589581,24325
"Nashville, Tennessee, USA, Northern America","Nashville, Davidson County, Tennessee, United States",-86.7816016,36.1626638,-87.0547049,-86.515589,35.9677849,36.4054958,32756
"Cannon Fall, Indiana, USA, Northern America","Indianapolis, Marion County, Indiana, United States",-86.158018,39.76909,-86.3281211,-85.9373789,39.632177,39.927392,21069
"Ballyvorgal South, Co. Clare, Republic of Ireland, Northern Europe","Ballyvorgal South, County Clare, Ireland",-8.7258408,52.7707677,-8.7410888,-8.7152401,52.7655662,52.776131,932
"Richmond, Indiana, USA, Northern America","Richmond, Wayne Township, Wayne County, Indiana, United States",-84.8902382,39.8289369,-84.9674649,-84.813804,39.74859,39.882589,8847
"Spring Valley, Minnesota, USA, Northern America","Spring Valley, Spring Valley Township, Fillmore County, Minnesota, United States, 55975",-92.396174,43.684423,-92.413955,-92.3492591,43.6742,43.709056,1829
"Woodford County, Kentucky, USA, Northern America","Woodford County, Kentucky, United States",-84.7315563,38.0721662,-84.8660031,-84.625079,37.84702,38.1954261,16563
"Lake Chaplain, Washington, USA, Northern America","Lake Chaplain, Everett, Snohomish County, Washington, United States",-121.8443679,47.9596345,-121.8570626,-121.8291529,47.9441593,47.9701867,1633
"Beartooth Butte, Wyoming, USA, Northern America","Beartooth Butte, Park County, Wyoming, United States, 82414",-109.6110027,44.9549444,-109.6123517,-109.6096537,44.95359542,44.95629338,184
"Ottawa, Canada, Northern America","Ottawa, Ottawa, Ontario, Canada",-75.7003397,45.4200572,-76.3539159,-75.2465979,44.962733,45.5375801,37805
"Trenton Falls, USA, Northern America","Trenton, Oneida County, New York, United States",-75.2245693,43.228708,-75.2872939,-75.1064949,43.181769,43.325387,7292
"Bay of Quinte, Ontario, Canada, Northern America","Bay of Quinte, Hastings County, Ontario, Canada",-77.2126473,44.1490319,-77.21399628,-77.21129832,44.14768292,44.15038088,185
"Bougang Quarry, Girvan, Ayrshire, Scotland, Northern Europe","Girvan, Girvan, South Ayrshire, Scotland, United Kingdom",-4.854218,55.240164,-4.8650235,-4.8384453,55.2254058,55.2555405,1781
"Auchensoul Quarry, Girvan, Ayrshire, Scotland, Northern Europe","Auchensoul, Girvan, South Ayrshire, Scotland, United Kingdom, KA26 9TJ",-4.716707,55.215672,-4.71800988,-4.71531192,55.21435042,55.21704838,169
"Minuntion, Girvan, Ayrshire, Scotland, Northern Europe","Minuntion, Pinmore, Girvan, South Ayrshire, Scotland, United Kingdom, KA26 0TE",-4.789921,55.1835847,-4.79119658,-4.78849862,55.18217152,55.18486948,169
"Craighead Quarry, Girvan, Ayrshire, Scotland, Northern Europe","76F9+VH, Girvan, South Ayrshire, Scotland, United Kingdom, KA26 9QG",-4.78109,55.27472,-4.78193068,-4.77923272,55.27327117,55.27596913,170
"Quarrel Hill, Girvan, Ayrshire, Scotland, Northern Europe","48, Dalrymple Street, Girvan, South Ayrshire, Scotland, United Kingdom, KA26 9BT",-4.8554847,55.2418013,-4.85673388,-4.85403592,55.24044917,55.24314713,170
"Breaks Bale, Ayrshire,  Scotland, Northern Europe","Ayrshire, Scotland, United Kingdom",-4.6679959,55.3649698,-5.3978616,-3.9570569,54.9976443,55.8926137,61920
"exposure in the east bank of the burn, Penkill Burn, Girvan, Ayrshire, Scotland, Northern Europe","Penkill Road, Girvan, South Ayrshire, Scotland, United Kingdom, KA26 9EG",-4.846889,55.2444933,-4.84857148,-4.84587352,55.24304922,55.24574718,154
"Woodlands Point, Girvan, Ayrshire, Scotland, Northern Europe","Girvan, Girvan, South Ayrshire, Scotland, United Kingdom",-4.854218,55.240164,-4.8650235,-4.8384453,55.2254058,55.2555405,1781
"Ladyburn, Girvan, Ayrshire, Scotland, Northern Europe","Lady Burn, Girvan, South Ayrshire, Scotland, United Kingdom",-4.793356461,55.29097721,-4.8377925,-4.7489204,55.2795655,55.3023889,3095
"Girvan, Ayrshire, Scotland, Northern Europe","Girvan, Girvan, South Ayrshire, Scotland, United Kingdom",-4.854218,55.240164,-4.8650235,-4.8384453,55.2254058,55.2555405,1781
"Minuntion Farm, Pinmore, Ayrshire, Scotland, Northern Europe","Minuntion, Pinmore, Girvan, South Ayrshire, Scotland, United Kingdom, KA26 0TE",-4.789921,55.1835847,-4.79119658,-4.78849862,55.18217152,55.18486948,169
"Drummuck, Girvan, Ayrshire, Scotland, Northern Europe","Girvan, Girvan, South Ayrshire, Scotland, United Kingdom",-4.854218,55.240164,-4.8650235,-4.8384453,55.2254058,55.2555405,1781
"Glenmard Quarry, Quarrel Hill, Girvan, Ayrshire, Scotland, Northern Europe","Glenmard House, Glenmard Estate, Girvan, South Ayrshire, Scotland, United Kingdom, KA26 9LB",-4.757725,55.287282,-4.75916953,-4.75647157,55.28593822,55.28863618,171
"Thraive Glen, Girvan, Ayrshire, Scotland, Northern Europe","Girvan, Girvan, South Ayrshire, Scotland, United Kingdom",-4.854218,55.240164,-4.8650235,-4.8384453,55.2254058,55.2555405,1781
"Ardwell Farm, Girvan, Ayrshire, Scotland, Northern Europe","Ardwell, Farm, Girvan, South Ayrshire, Scotland, United Kingdom, KA26 0HP",-4.8931756,55.207097,-4.89453453,-4.89183657,55.20573982,55.20843778,172
"Shalloch Mill, Girvan, Ayrshire, Scotland, Northern Europe","Shalloch Square, Girvan, South Ayrshire, Scotland, United Kingdom, KA26",-4.8505608,55.2350328,-4.85152648,-4.84882852,55.23380517,55.23650313,150
"Penwhapple Burn, Girvan, Ayrshire, Scotland, Northern Europe","Penwhapple Burn, Girvan, South Ayrshire, Scotland, United Kingdom, KA26",-4.773342849,55.24704887,-4.8058396,-4.7408461,55.2323516,55.2617462,2636
"South Threave, Ayrshire, Girvan, Scotland, Northern Europe","Girvan, South Ayrshire, Scotland, United Kingdom, KA26 9JZ",-4.7668297,55.2950342,-4.76816393,-4.76546597,55.29369452,55.29639248,172
"Dailly, Ayrshire, Scotland, Northern Europe","Dailly, Girvan, South Ayrshire, Scotland, United Kingdom, KA26",-4.7244141,55.2766771,-4.7305883,-4.7176178,55.2733758,55.2799167,538
"Kilbucho, 5km SSE of Biggar NT 060 338, Peeblesshire, Scotland, Northern Europe","Biggar, Biggar, South Lanarkshire, Scotland, United Kingdom, ML12",-3.523964,55.623396,-3.5391809,-3.5049497,55.6150675,55.6294161,1334
"Kilgrammie, Girvan, Ayrshire, Scotland, Northern Europe","Kilgrammie House, Girvan, South Ayrshire, Scotland, United Kingdom, KA26 9LD",-4.7535167,55.2809324,-4.75489738,-4.75219942,55.27968067,55.28237863,165
"Kilbucho, 5km SSE of Biggar, Peeblesshire, Scotland, Northern Europe","Kilbucho, Biggar, Scottish Borders, Scotland, United Kingdom, ML12 6JG",-3.465865,55.601416,-3.46721398,-3.46451602,55.60006702,55.60276498,173
"Wallace's Cast, Peeblesshire, Scotland, Northern Europe","Peebles, Peebles, Scottish Borders, Scotland, United Kingdom, EH45",-3.193642,55.653071,-3.2076422,-3.1641578,55.637283,55.6664181,1966
"Pomeroy, Co. Tyrone, Northern Ireland, Northern Europe","Pomeroy, Dungannon, Mid Ulster, Northern Ireland, United Kingdom, BT70",-6.9290099,54.5943155,-6.9453439,-6.9181805,54.58796,54.598101,817
"Mulloch Hill, Girvan, Ayrshire, Scotland, Northern Europe","McCulloch Road, Girvan, South Ayrshire, Scotland, United Kingdom, KA26",-4.8471997,55.2365555,-4.84838273,-4.84568477,55.23522897,55.23792693,166
"Dunlavay, Lough Mask, Co. Mayo, Republic of Ireland, Northern Europe","Lough Mask, Ireland",-9.3273832,53.6452231,-9.5166727,-9.2777999,53.5502199,53.69591,6524
"Podmokly, Czech Republic, Eastern Europe","Podmokly, Děčín 2, Děčín District, Ústí nad Labem Region, Czechia, 405 02",14.1971277,50.775567,14.19577872,14.19847668,50.77421802,50.77691598,178
"Podowrin Burn, Hagshaw Hills, Lanarkshire, Scotland, Northern Europe","Podowrin Burn, Lanark, South Lanarkshire, Scotland, United Kingdom, ML11 0SJ",-3.917939884,55.54155533,-3.9278991,-3.9079806,55.5379726,55.545138,745
"Gutterford Burn, Pentland Hills, Midlothian, Scotland, Northern Europe","Pentland Hills Regional Park, Flotterstone, Scotland, United Kingdom, EH26 0PP",-3.2267443,55.8548682,-3.22771738,-3.22501942,55.85347997,55.85617793,166
"Mocktree, Herefordshire, England, Northern Europe","Mocktree, Craven Arms, Herefordshire, England, United Kingdom, SY7 0LY",-2.8546299,52.371814,-2.85597888,-2.85328092,52.37046502,52.37316298,176
"Onibury, Shropshire, England, Northern Europe","Onibury, Craven Arms, Shropshire, England, United Kingdom, SY7 9AW",-2.8051149,52.409984,-2.80646388,-2.80376592,52.40863502,52.41133298,176
"Montague, New Jersey, USA, Northern America","Montague, Sandyston, Sussex County, New Jersey, United States",-74.7907582,41.2909206,-74.8364211,-74.64934,41.222066,41.357607,8551
"Woodland Point, Girvan, Ayrshire, Scotland, Northern Europe","Girvan, Girvan, South Ayrshire, Scotland, United Kingdom",-4.854218,55.240164,-4.8650235,-4.8384453,55.2254058,55.2555405,1781
"Top of Deerhope Burn, north Bank, top of main scree, North Esk Inlier, Pentland Hills, Scotland, Northern Europe","Scotland, United Kingdom",-4.2026458,56.4906712,-8.6500072,-0.7246751,54.6332381,60.8607515,348469
"Railway cutting near Rushall, Staffordshire, England, Northern Europe","Rushall, Walsall, West Midlands, England, United Kingdom",-1.9621922,52.6090771,-1.968613,-1.9541546,52.5992824,52.6170297,1039
"Stokesay, Shropshire, England, Northern Europe","Stokesay, Craven Arms, Shropshire, England, United Kingdom, SY7 9AH",-2.829809,52.428114,-2.83115798,-2.82846002,52.42676502,52.42946298,176
"Clark's Mills, Perry County, Pennsylvania, USA, Northern America","Perry County, Pennsylvania, United States",-77.2405153,40.371376,-77.6717611,-76.9149699,40.1853621,40.6281669,39682
"Western Ontario, Canada, Northern America","Ontario, Canada",-85.3232139,51.253775,-95.1558005,-74.3434716,41.6765559,56.8670159,950500
"Elora, Western Ontario, Canada, Northern America","Elora, Centre Wellington, Wellington County, Ontario, Canada, N0B 1S0",-80.4305427,43.683715,-80.4409712,-80.4005706,43.6704741,43.698461,1695
"Norton, Craven Arms, Shropshire, England, Northern Europe","Norton, Craven Arms, Shropshire, England, United Kingdom, SY7 9LS",-2.793886,52.428227,-2.79523498,-2.79253702,52.42687802,52.42957598,176
"Nickees, Pennsylvania, USA, Northern America","Pennsylvania, United States",-77.1945247,41.2033216,-80.5198485,-74.6895609,39.719799,42.5141658,253873
"Norbury, Shropshire, England, Northern Europe","Norbury, Bishops Castle, Shropshire, England, United Kingdom",-2.9392749,52.5299959,-2.952467,-2.9150619,52.5022637,52.5535578,3094
"Whitfield, Gloucestershire, England, Northern Europe","Whitfield, Wotton-under-Edge, South Gloucestershire, England, United Kingdom, GL12",-2.4712579,51.6212121,-2.4768165,-2.466752,51.6191969,51.6236395,413
"Damory Bridge, Gloucestershire, England, Northern Europe","Mitcheldean, Mitcheldean, Gloucestershire, England, United Kingdom, GL17",-2.489453,51.862693,-2.5038485,-2.4773783,51.8409388,51.8741261,1520
"May Hill, Gloucestershire, England, Northern Europe","May Hill, Longhope, Gloucestershire, England, United Kingdom, GL17 0RF",-2.4438055,51.8892222,-2.44515448,-2.44245652,51.88787322,51.89057118,177
"Mc Keet, Pennsylvania, USA, Northern America","Pennsylvania, United States",-77.1945247,41.2033216,-80.5198485,-74.6895609,39.719799,42.5141658,253873
"Newlands Burn, Ayrshire, Scotland, Northern Europe","Newlands Burn, East Ayrshire Council, Scotland, United Kingdom",-4.293459034,55.60027129,-4.3008428,-4.2860752,55.5941307,55.6064119,827
"Deerhope Rig, Pentland Hills, Midlothian, Scotland, Northern Europe","Pentland Hills Regional Park, Flotterstone, Scotland, United Kingdom, EH26 0PP",-3.2267443,55.8548682,-3.22771738,-3.22501942,55.85347997,55.85617793,166
"Bohemia, Czech Republic, Eastern Europe","Bohemia, Prague 1, Hlavní město Praha, Prague, Czechia, 110 00",14.4328744,50.0850736,14.43152542,14.43422338,50.08372462,50.08642258,178
"Mordiford, Herefordshire, England, Northern Europe","Mordiford, Hereford, Herefordshire, England, United Kingdom, HR1",-2.6264948,52.0321559,-2.6305529,-2.617537,52.0317644,52.0357229,282
"Deerhope Burn, Pentland Hills, Midlothian,  Scotland, Northern Europe","Pentland Hills Regional Park, Flotterstone, Scotland, United Kingdom, EH26 0PP",-3.2267443,55.8548682,-3.22771738,-3.22501942,55.85347997,55.85617793,166
"Plowdon, Shropshire, England, Northern Europe","Plowden, Lydbury North, Shropshire, England, United Kingdom, SY7 8BE",-2.912533,52.48481,-2.91388198,-2.91118402,52.48346102,52.48615898,176
"Whitecliff, Ludlow, Shropshire, England, Northern Europe","Ludlow, Ludlow, Shropshire, England, United Kingdom, SY8",-2.7139129,52.367749,-2.7350821,-2.6844195,52.3579584,52.386009,1807
"Havenfordwest, Pembrokeshire, Wales, Northern Europe","Haverfordwest, Haverfordwest, Pembrokeshire, Wales, United Kingdom, SA62",-4.971319,51.800475,-5.0092007,-4.9493781,51.7802062,51.8197361,2623
"Much Wenlock, Shropshire, England, Northern Europe","Much Wenlock, Much Wenlock, Shropshire, England, United Kingdom, TF13",-2.5592959,52.5971339,-2.5782095,-2.5441475,52.5880369,52.604827,1337
"Penwhapple Glen, Girvan, Ayrshire, Scotland, Northern Europe","Penwhapple Reservoir, Girvan, South Ayrshire, Scotland, United Kingdom, KA26 9TH",-4.7366265,55.2405668,-4.7432177,-4.73259,55.2344732,55.2460044,658
"Wether Law Linn, locality R82, Pentland Hills, Midlothian, Scotland, Northern Europe","Wether Law, West Linton, Scottish Borders, Scotland, United Kingdom, EH46 7BX",-3.2836944,55.7220833,-3.28504338,-3.28234542,55.72073432,55.72343228,172
"south bank of Wether Law Linn, main scree, Pentland Hills, Midlothian, Scotland, Northern Europe","Wether Law, West Linton, Scottish Borders, Scotland, United Kingdom, EH46 7BX",-3.2836944,55.7220833,-3.28504338,-3.28234542,55.72073432,55.72343228,172
"found loose at Deerhope Burn 1,000 metres wes of its mouth, exposure on north side of dry valley, Pentland Hills, Midlothian, Scotland, Northern Europe","Pentland Hills Military Path, Castlelaw Cottages, Penicuik, Midlothian, Scotland, United Kingdom, EH26 0PB",-3.2354106,55.8693566,-3.23681143,-3.23411347,55.86801212,55.87071008,171
"Buildwas, Shropshire, England, Northern Europe","Buildwas, Telford, Shropshire, England, United Kingdom, TF8 7BX",-2.531244,52.637896,-2.53259298,-2.52989502,52.63654702,52.63924498,176
"Deerhope Burn, main scree at top of burn west, Pentland Hills, Midlothian, Scotland, Northern Europe","Pentland Hills Regional Park, Flotterstone, Scotland, United Kingdom, EH26 0PP",-3.2267443,55.8548682,-3.22771738,-3.22501942,55.85347997,55.85617793,166
"Bargany Pond Burn, Girvan, Ayrshire, Scotland, Northern Europe","Bargany, Girvan, South Ayrshire, Scotland, United Kingdom, KA26 9RG",-4.764971,55.265444,-4.76631998,-4.76362202,55.26409502,55.26679298,173
"main scree at western end of Deerhope Burn, Pentland Hills, Midlothian, Scotland, Northern Europe","Pentland Hills Regional Park, Flotterstone, Scotland, United Kingdom, EH26 0PP",-3.2267443,55.8548682,-3.22771738,-3.22501942,55.85347997,55.85617793,166
"north bank top of main scree, top of Deerhope Burn, Pentland Hills, Midlothian, Scotland, Northern Europe","Pentland Hills Regional Park, Flotterstone, Scotland, United Kingdom, EH26 0PP",-3.2267443,55.8548682,-3.22771738,-3.22501942,55.85347997,55.85617793,166
"Mc Kee's, Miffen, Pennsylvania, USA, Northern America","McKee, Blair County, Pennsylvania, United States",-78.4197681,40.3599078,-78.4279249,-78.412944,40.3549289,40.3664619,886
"East bank Gutterford Burn, Pentland Hills, Midlothian, Scotland, Northern Europe","Pentland Hills Regional Park, Flotterstone, Scotland, United Kingdom, EH26 0PP",-3.2267443,55.8548682,-3.22771738,-3.22501942,55.85347997,55.85617793,166
"Deerhope Coral Bed, South bank Deerhope Burn, second tributary, Pentland Hills, Midlothian, Scotland, Northern Europe","Pentland Hills Regional Park, Flotterstone, Scotland, United Kingdom, EH26 0PP",-3.2267443,55.8548682,-3.22771738,-3.22501942,55.85347997,55.85617793,166
"Mullocks Hill, Girvan, Ayrshire, Scotland, Northern Europe","Girvan, Girvan, South Ayrshire, Scotland, United Kingdom",-4.854218,55.240164,-4.8650235,-4.8384453,55.2254058,55.2555405,1781
"Penkill, Girvan, Ayrshire, Scotland, Northern Europe","Girvan, Girvan, South Ayrshire, Scotland, United Kingdom",-4.854218,55.240164,-4.8650235,-4.8384453,55.2254058,55.2555405,1781
"Deerhope Burn, 1000 metres west of its mouth exposure on north side of dry valley, Pentland Hills, Midlothian, Scotland, Northern Europe","Pentland Hills Military Path, Castlelaw Cottages, Penicuik, Midlothian, Scotland, United Kingdom, EH26 0PB",-3.2354106,55.8693566,-3.23681143,-3.23411347,55.86801212,55.87071008,171
"Wether Law Linn, Pentland Hills, Midlothian, Scotland, Northern Europe","Wether Law, West Linton, Scottish Borders, Scotland, United Kingdom, EH46 7BX",-3.2836944,55.7220833,-3.28504338,-3.28234542,55.72073432,55.72343228,172
"Main scree south bank of Wether Law Lin, Pentland Hills, Midlothian, Scotland, Northern Europe","Midlothian, Scotland, United Kingdom",-3.1338428,55.8292247,-3.3690393,-2.8462393,55.7103492,55.9320236,19826
"North Wether Law Linn, North Esk, Pentland Hills, Midlothian, Scotland, Northern Europe","Wether Law, West Linton, Scottish Borders, Scotland, United Kingdom, EH46 7BX",-3.2836944,55.7220833,-3.28504338,-3.28234542,55.72073432,55.72343228,172
"Strinds Quarry, Old Radnor, Powys, Wales, Northern Europe","Strinds Quarry, Dolyhir, Old Radnor, Presteigne, Powys, Wales, United Kingdom, LD8 2RW",-3.1154651,52.2173454,-3.11676083,-3.11406287,52.21605122,52.21874918,169
"Rough Neuk Farm, New Dailly, Ayrshire, Scotland, Northern Europe","Dailly, Girvan, South Ayrshire, Scotland, United Kingdom, KA26",-4.7244141,55.2766771,-4.7305883,-4.7176178,55.2733758,55.2799167,538
"Linley, Shropshire, England, Northern Europe","Linley, Bishops Castle, Shropshire, England, United Kingdom, SY9 5HL",-2.959829,52.528465,-2.96117798,-2.95848002,52.52711602,52.52981398,176
"Rochester, New York, USA","Rochester, Monroe County, New York, United States",-77.6088465,43.1565779,-77.701632,-77.531166,43.1033071,43.269045,9593
"Henshaw Burn, 30m north of join with North Esk River, South Bank, Pentland Hills, Midlothian, Scotland, Northern Europe","Pentland Hills Regional Park, Flotterstone, Scotland, United Kingdom, EH26 0PP",-3.2267443,55.8548682,-3.22771738,-3.22501942,55.85347997,55.85617793,166
"McKees, Mifflin County, Pennsylvania, USA","McKee, Blair County, Pennsylvania, United States",-78.4197681,40.3599078,-78.4279249,-78.412944,40.3549289,40.3664619,886
"Clarks Mills, Perry County, Pennsylvania, USA","Clarks Mills, Perry Township, Mercer County, Pennsylvania, United States, 16114",-80.1836732,41.3931109,-80.18502218,-80.18232422,41.39176192,41.39445988,188
"Buffalo, New York, USA","Buffalo, Erie County, New York, United States",-78.8788896,42.8869004,-78.9337269,-78.795157,42.826023,42.9664551,8113
"Wren's Nest, Dudley, Worcestershire, England, Northern Europe","Wren's Nest, Dudley, West Midlands, England, United Kingdom, DY1",-2.0970689,52.5253329,-2.1077174,-2.0908732,52.5198663,52.5326869,920
"Main scree, south bank, Wether Law Linn, North Esk Inlier, Pentland Hills, Midlothian, Scotland, Northern Europe","Pentland Hills Regional Park, Flotterstone, Scotland, United Kingdom, EH26 0PP",-3.2267443,55.8548682,-3.22771738,-3.22501942,55.85347997,55.85617793,166
"Camregan Wood, Girvan, Ayrshire, Scotland, Northern Europe","Wood Street, Dailly, Girvan, South Ayrshire, Scotland, United Kingdom, KA26",-4.7291874,55.2754069,-4.73049643,-4.72779847,55.27410942,55.27680738,167
"Auld Thorus, east side of Quarrel Hill, north of New Dailly, Girvan, Ayrshire, Scotland, Northern Europe","Dailly, Girvan, South Ayrshire, Scotland, United Kingdom, KA26",-4.7244141,55.2766771,-4.7305883,-4.7176178,55.2733758,55.2799167,538
"western end of Deerhope Burn, North Esk Inlier, Pentland Hills, Midlothian, Scotland, Northern Europe","Pentland Hills, West Linton, Scottish Borders, Scotland, United Kingdom, EH46 7HL",-3.4166667,55.7666667,-3.41801568,-3.41531772,55.76531772,55.76801568,172
"North Esk, Pentland Hills, Midlothian, Scotland, Northern Europe","Pentland Hills, West Linton, Scottish Borders, Scotland, United Kingdom, EH46 7HL",-3.4166667,55.7666667,-3.41801568,-3.41531772,55.76531772,55.76801568,172
"Gotland, Sweden, Northern Europe","Gotland, Gotland County, Sweden",18.4867447,57.4684121,18.085562,19.1228587,56.9049485,57.9298153,63869
"North of mouth of Wether Law Linn, North Esk River, Pentland Hills, Midlothian, Scotland, Northern Europe","River North Esk, Scotland, United Kingdom",-3.201531069,55.85524358,-3.3482785,-3.0547836,55.7902181,55.9202691,11693
"South bank of Wether Law Linn, North Esk Inlier, Pentland Hills, Midlothian, Scotland, Northern Europe","Wether Law, West Linton, Scottish Borders, Scotland, United Kingdom, EH46 7BX",-3.2836944,55.7220833,-3.28504338,-3.28234542,55.72073432,55.72343228,172
"Deerhope, Pentland Hills, Midlothian, Scotland, Northern Europe","Pentland Hills Regional Park, Flotterstone, Scotland, United Kingdom, EH26 0PP",-3.2267443,55.8548682,-3.22771738,-3.22501942,55.85347997,55.85617793,166
"Priors Court, Mordiford, Herefordshire, England, Northern Europe","Priors Court, Staplow, Ledbury, Herefordshire, England, United Kingdom, HR8 1NQ",-2.4421982,52.0679538,-2.44346588,-2.44076792,52.06654712,52.06924508,174
"128 yards east of Haggis Quarry, Pentland Hills, Midlothian, Scotland, Northern Europe","Pentland Hills Regional Park, Flotterstone, Scotland, United Kingdom, EH26 0PP",-3.2267443,55.8548682,-3.22771738,-3.22501942,55.85347997,55.85617793,166
"Longhope, Gloucestershire, England, Northern Europe","Longhope, Longhope, Gloucestershire, England, United Kingdom, GL17",-2.454864,51.866547,-2.4694974,-2.4369357,51.8586553,51.8828833,1337
"Newlands Farm, Girvan, Ayrshire, Scotland, Northern Europe","Girvan, Girvan, South Ayrshire, Scotland, United Kingdom",-4.854218,55.240164,-4.8650235,-4.8384453,55.2254058,55.2555405,1781
"Shineton, Shropshire, England, Northern Europe","Shropshire, England, United Kingdom",-2.7417849,52.7063657,-3.2355653,-2.2328985,52.3062678,52.9983945,47237
"Daw End, Walsall, Staffordshire, England, Northern Europe","Daw End, Walsall, West Midlands, England, United Kingdom, WS4 1LA",-1.954111,52.6037899,-1.95545998,-1.95276202,52.60244092,52.60513888,176
"Lockport, New York, USA","Lockport, Lockport, Niagara County, New York, United States, 14094",-78.6903098,43.1706128,-78.738898,-78.662373,43.143742,43.193908,3443
"Shelderton Quarries, Shropshire, England, Northern Europe","Shelderton, Craven Arms, Shropshire, England, United Kingdom, SY7 0PE",-2.873808,52.3961169,-2.87515698,-2.87245902,52.39476792,52.39746588,176
"Aymestry, Herefordshire, England, Northern Europe","Aymestrey, Leominster, Herefordshire, England, United Kingdom, HR6",-2.845269,52.2816849,-2.8465047,-2.8405887,52.278562,52.2859553,358
"Arisaig shore, Nova Scotia, Canada","Arisaig, Antigonish County, Nova Scotia, Canada, B2G 2L1",-62.166667,45.75,-62.16801598,-62.16531802,45.74865102,45.75134898,183
"Utica, New York, USA","Utica, Oneida County, New York, United States",-75.2355806,43.1010949,-75.295296,-75.1609059,43.064471,43.1324381,6340
"Wales, Northern Europe","Wales, United Kingdom",-3.7837117,52.1306607,-5.6700973,-2.6497994,51.3749686,53.4356935,155036
"Shropshire, England, Northern Europe","Shropshire, England, United Kingdom",-2.7417849,52.7063657,-3.2355653,-2.2328985,52.3062678,52.9983945,47237
"Wren Nest Hill, Dudley, Worcestershire, England","Wren's Nest Place, Dudley, West Midlands, England, United Kingdom, DY1",-2.099884,52.5260205,-2.10120658,-2.09850862,52.52466542,52.52736338,175
"JerUSA, Harlem Hill, New York, USA","Harlem, Manhattan, New York, New York County, New York, United States",-73.9464769,40.8115504,-73.9623589,-73.9338182,40.7968871,40.834443,2109
"Deerhope or Wether Law Linn, Pentland Hills, Midlothian, Scotland, Northern Europe","Pentland Hills Regional Park, Flotterstone, Scotland, United Kingdom, EH26 0PP",-3.2267443,55.8548682,-3.22771738,-3.22501942,55.85347997,55.85617793,166
"Dudley, Worcestershire, England, Northern Europe","Dudley, West Midlands, England, United Kingdom",-2.0865972,52.5106724,-2.1567844,-2.0571865,52.4735445,52.5581732,5650
"Henshaw Burn, Pentland Hills, Midlothian, Scotland, Northern Europe","Pentland Hills Regional Park, Flotterstone, Scotland, United Kingdom, EH26 0PP",-3.2267443,55.8548682,-3.22771738,-3.22501942,55.85347997,55.85617793,166
"East bank of Gutterford Burn, North Esk Inlier, Pentland Hills, Scotland, Northern Europe","River North Esk, Scotland, United Kingdom",-3.201531069,55.85524358,-3.3482785,-3.0547836,55.7902181,55.9202691,11693
"Deerhope Burn, Pentland Hills, Midlothian, Scotland, Northern Europe","Pentland Hills Regional Park, Flotterstone, Scotland, United Kingdom, EH26 0PP",-3.2267443,55.8548682,-3.22771738,-3.22501942,55.85347997,55.85617793,166
"Wether Law Linn, base of scree slope, southern bank, North Esk Inlier, Pentland Hills, Midlothian, Scotland, Northern Europe","Wether Law, West Linton, Scottish Borders, Scotland, United Kingdom, EH46 7BX",-3.2836944,55.7220833,-3.28504338,-3.28234542,55.72073432,55.72343228,172
"Presthope, Shropshire, England, Northern Europe","Presthope, Much Wenlock, Shropshire, England, United Kingdom, TF13 6QQ",-2.615996,52.571823,-2.61734498,-2.61464702,52.57047402,52.57317198,176
"Newlands, Girvan, Ayrshire, Scotland, Northern Europe","Girvan, Girvan, South Ayrshire, Scotland, United Kingdom",-4.854218,55.240164,-4.8650235,-4.8384453,55.2254058,55.2555405,1781
"McKee's, Mifflin County, Pennsylvania, USA","Mifflin County, Pennsylvania, United States",-77.6077865,40.652279,-77.9139289,-77.287941,40.3605421,40.8469369,34596
"Kilbride Peninsula, County Mayo, Republic of Ireland","Mayo, County Mayo, Ireland",-9.4289369,54.0152604,-10.2593809,-8.5828617,53.4719262,54.3454432,66350
"Mulloch Hill, High Road, Girvan, Ayrshire, Scotland, Europe","High Road, North Ayrshire Council, Scotland, United Kingdom",-4.7791269,55.6420576,-4.7980014,-4.7578134,55.6397366,55.6462834,1216
"Deerhope Burn, top of main scree slope of western end, North Esk Inlier, Pentland Hills, Midlothian, Scotland, Northern Europe","Midlothian, Scotland, United Kingdom",-3.1338428,55.8292247,-3.3690393,-2.8462393,55.7103492,55.9320236,19826
"Top of the main scree, north bank, top of Deerhope Burn, Pentland Hills, Midlothian, Scotland, Northern Europe","Pentland Hills Regional Park, Flotterstone, Scotland, United Kingdom, EH26 0PP",-3.2267443,55.8548682,-3.22771738,-3.22501942,55.85347997,55.85617793,166
"Deckers Ferry, Pennsylvania, USA","Decker Ferry Road, Upper Mount Bethel Township, Northampton County, Pennsylvania, United States, 18343",-75.1107057,40.9445423,-75.1126686,-75.1096579,40.9427073,40.946334,218
"Doonquin, Clogher Head, County Kerry, Republic of Ireland","Slea Head Drive, Graigue, County Kerry, Ireland",-10.4781701,52.1508745,-10.47951908,-10.47682112,52.14952552,52.15222348,176
"Ballycar, County Clare, Republic of Ireland","Ballycar, Ballycar North, County Clare, Ireland",-8.65661,52.7322,-8.65795898,-8.65526102,52.73085102,52.73354898,176
"Ferriter's Cove, Dingle Peninsula, County Kerry, Republic of Ireland","Ballincolla, County Kerry, Ireland",-10.4399559,52.1733105,-10.44095708,-10.43825912,52.17204707,52.17474503,156
"Clogher Head, County Kerry, Republic of Ireland, Europe","Slea Head Drive, Graigue, County Kerry, Ireland",-10.4781701,52.1508745,-10.47951908,-10.47682112,52.14952552,52.15222348,176
"Boocaun, Cong, County Galway, Republic of Ireland, Northern Europe","Boocaun, County Galway, Ireland",-9.4121456,53.5497942,-9.4185458,-9.3952966,53.545905,53.5549649,606
"Ballintemple, Parish of Dooquin, County Kerry, Republic of Ireland, Northern Europe","Ballintemple, County Kerry, Ireland",-10.4364713,52.1384124,-10.4535752,-10.4243154,52.1319051,52.1406631,869
"Bradford-on-Avon, Wiltshire, England, Northern Europe","Bradford-on-Avon, Wiltshire, England, United Kingdom, BA15",-2.2525019,51.345178,-2.2748896,-2.2269656,51.3282564,51.3631739,2445
"Farleigh Down, Bath, Somerset, England, Northern Europe","A366, Farleigh Hungerford, Bath, Somerset, England, United Kingdom, BA2 7RS",-2.286551,51.3173589,-2.28769518,-2.28499722,51.31573067,51.31842863,161
"Scutterdine, Herefordshire, England, Northern Europe","Hereford, Hereford, Herefordshire, England, United Kingdom",-2.715974,52.056398,-2.7747453,-2.6725242,52.0283901,52.0771019,3766
"Kilbucho, Biggar, Peeblesshire, Scotland","Kilbucho, Biggar, Scottish Borders, Scotland, United Kingdom, ML12 6JG",-3.465865,55.601416,-3.46721398,-3.46451602,55.60006702,55.60276498,173
"North Esk Inlier, Pentland Hills, Midlothian, Scotland, Northern Europe","Pentland Hills, West Linton, Scottish Borders, Scotland, United Kingdom, EH46 7HL",-3.4166667,55.7666667,-3.41801568,-3.41531772,55.76531772,55.76801568,172
"Pentland Hills, Midlothian, Scotland, Northern Europe","Pentland Hills, West Linton, Scottish Borders, Scotland, United Kingdom, EH46 7HL",-3.4166667,55.7666667,-3.41801568,-3.41531772,55.76531772,55.76801568,172
"Rockford, Iowa, USA","Rockford, Floyd County, Iowa, United States, 50468",-92.9485301,43.0521922,-92.962513,-92.935459,43.0485799,43.0572641,1205
"Madison City, New York, USA","Madison, Madison, Madison County, New York, United States, 13402",-75.5121217,42.8989582,-75.518848,-75.505481,42.8920231,42.903475,739
"Landlake, Launceston, Cornwall, England","Landlake Road, Launceston, Cornwall, England, United Kingdom, PL15",-4.3607243,50.6252585,-4.36246968,-4.35977172,50.6232017,50.6285341,260
"Cazenovia, Madison, New York, USA, North America","Cazenovia, Cazenovia, Madison County, New York, United States, 13035",-75.8526915,42.9300668,-75.871551,-75.8349339,42.91647,42.9407099,1871
"East Bethany, New York, USA","East Bethany, Bethany, Genesee County, New York, United States, 14054",-78.1014019,42.9314495,-78.10275088,-78.10005292,42.93010052,42.93279848,186
"Ithaca, New York, USA","Ithaca, Ithaca, Tompkins County, New York, United States",-76.5018807,42.4439614,-76.5269469,-76.469803,42.418327,42.4670791,3516
"Moscow, New York, USA","Leicester, Leicester, Livingston County, New York, United States, 14481",-77.8966709,42.7720066,-77.904826,-77.8872199,42.766252,42.7757509,878
"East Bloomfield, New York, USA","East Bloomfield, Bloomfield, East Bloomfield, Ontario County, New York, United States, 14469",-77.4352209,42.8951611,-77.4408775,-77.4297171,42.8899929,42.8982632,566
"Craigs, New York, USA","Craigs, York, Livingston County, New York, United States, 14533",-77.9216734,42.8608951,-77.92302238,-77.92032442,42.85954612,42.86224408,186
"Gerolstein, Eifel, Germany","Eifel, Gerolstein, Vulkaneifel, Rhineland-Palatinate, Germany, 54568",6.6666667,50.25,6.66531772,6.66801568,50.24865102,50.25134898,178
"Ferques, Pas-de-Calais, Nord, France, Western Europe","Ferques, Pas-de-Calais, Hauts-de-France, France",1.764077,50.828816,1.7319482,1.8055019,50.8149721,50.8417114,2738
"Clarksville, New York, USA","Clarksville, Allegany County, New York, United States",-78.2703951,42.1250458,-78.3090021,-78.190679,42.086336,42.173621,5356
"Coblenz, Germany, Western Europe","Koblenz, Kreisfreie Stadt Koblenz, Rhineland-Palatinate, Germany, 56",7.5889959,50.3569429,7.480694,7.6964154,50.2829914,50.4095948,9627
"Milwaukee, Wisconsin, USA","Milwaukee, Milwaukee County, Wisconsin, United States",-87.9096783,43.0410344,-88.0710091,-87.863807,42.920823,43.194772,17483
"Fossil, Oregon, USA","Fossil, Wheeler County, Oregon, United States, 97830",-120.2161373,44.9981864,-120.224958,-120.2043452,44.992433,45.003706,945
"Oneonta, New York, USA","Oneonta, Oneonta, Otsego County, New York, United States, 13820",-75.0637746,42.4528571,-75.109756,-75.022694,42.4336411,42.4779089,4344
"Two Bridges, Launceston, Cornwall, England, Europe","Two Bridges Bungalow, Lewannick, Launceston, Cornwall, England, United Kingdom, PL15 7QN",-4.4456867,50.6105736,-4.44701668,-4.44431872,50.60932477,50.61202273,168
"Millerstown, Pennsylvania, USA",NA,NA,NA,NA,NA,NA,NA,NA
"Charlestown, Indiana, USA","Charlestown, Charlestown Township, Clark County, Indiana, United States, 47111",-85.6702406,38.45312,-85.7230939,-85.620479,38.391688,38.4771699,5098
"Bloomfield, New York, USA","Bloomfield, East Bloomfield, Ontario County, New York, United States, 14469",-77.4214278,42.8972624,-77.4407679,-77.407719,42.890113,42.909015,1720
"Exmouth, Devon, England","Exmouth, Exmouth, Devon, England, United Kingdom",-3.413702,50.619957,-3.4277374,-3.3653957,50.6091605,50.6532778,1559
"Meadsfoot, Torquay, Devon, England, Northern Europe","Meadfoot Beach, Meadfoot Sea Road, Torquay, Torbay, England, United Kingdom, TQ1 2LL",-3.5083297,50.4577997,-3.50964978,-3.50695182,50.45642517,50.45912313,177
"Ilfracombe, Devon, England, Northern Europe","Ilfracombe, Ilfracombe, Devon, England, United Kingdom, EX34",-4.126762,51.205163,-4.1643578,-4.0766799,51.1753399,51.2188737,3818
"Woolborough, Newton, Devon, England, Northern Europe","Wolborough, Newton Abbot, Devon, England, United Kingdom, TQ12 6BU",-3.621571,50.521841,-3.62291998,-3.62022202,50.52049202,50.52318998,178
"Callaway County, Missouri, USA","Callaway County, Missouri, United States",-91.9099238,38.8886044,-92.226091,-91.633998,38.557396,39.0644931,30870
"Hackberry Grove, Iowa, USA","Hackberry Avenue, Page County, Iowa, United States",-95.228901,40.6621622,-95.2371087,-95.2162283,40.5775935,40.7446056,9218
"Eighteen Mile Creek, New York, USA","Eighteenmile Creek, Hamburg, Erie County, New York, United States, 14085",-78.9692034,42.7181144,-78.97055238,-78.96785442,42.71676542,42.71946338,186
"Port Colborne, Ontario, Canada","Port Colborne, Regional Municipality of Niagara, Ontario, Canada",-79.2508558,42.8865204,-79.2814091,-79.1151229,42.697384,42.959874,13755
"Independence, Iowa, USA","Independence, Buchanan County, Iowa, United States, 50644",-91.8893386,42.4685978,-91.953393,-91.866181,42.443021,42.491431,3172
"Croyde Bay, Devon, England, Northern Europe","Croyde Bay, Croyde, Braunton, Devon, England, United Kingdom, EX33 1NU",-4.2342479,51.1346487,-4.23559688,-4.23289892,51.13329972,51.13599768,177
"near Exmouth, Devon, England, Europe","Exmouth, Exmouth, Devon, England, United Kingdom",-3.413702,50.619957,-3.4277374,-3.3653957,50.6091605,50.6532778,1559
"Wittlich, Eifel, Germany, Europe","Wittlich, Wittlich-Land, Bernkastel-Wittlich, Rhineland-Palatinate, Germany, 54516",6.889722,49.986944,6.88837302,6.89107098,49.98559502,49.98829298,179
"Jeffersonville, Indiana, USA","Jeffersonville, Utica Township, Clark County, Indiana, United States",-85.7371847,38.2775702,-85.757709,-85.632827,38.2671701,38.4027319,2135
"Schoharie County, New York, USA","Schoharie County, New York, United States",-74.4994517,42.6550335,-74.71158,-74.1646779,42.3550169,42.829558,33575
"Stroudsberg, Pennsylvania, USA","Stroudsburg, Monroe County, Pennsylvania, United States, 18360",-75.1946248,40.9867609,-75.2157921,-75.179355,40.974765,40.997542,1756
"Cudlbeckville, New York, USA","Cuddebackville, Deerpark, Orange County, New York, United States, 12729",-74.5937718,41.4673153,-74.59512078,-74.59242282,41.46596632,41.46866428,187
"Murlenbach, Eifel, Germany, Western Europe","Mürlenbach, Vulkaneifel, Rhineland-Palatinate, Germany, 54570",6.6004494,50.15032,6.5484567,6.6722153,50.127102,50.1644271,4526
"Danville, Pennsylvania, USA, Northern America","Danville, Montour County, Pennsylvania, United States, 17821",-76.6127329,40.96342,-76.6334341,-76.5925591,40.9463209,40.980651,2558
"Perry County, Pennsylvania, USA","Perry County, Pennsylvania, United States",-77.2405153,40.371376,-77.6717611,-76.9149699,40.1853621,40.6281669,39682
"Hopewell, New York, USA, North America","Hopewell, Ontario County, New York, United States",-77.1715228,42.8955404,-77.2459839,-77.1309239,42.85491,42.945142,6430
"Bethany, New York, USA","Bethany, Genesee County, New York, United States",-78.133638,42.9238109,-78.1926209,-78.07413,42.87,42.9575909,6138
"Alfred, New York, USA","Alfred, Alfred, Allegany County, New York, United States",-77.7905509,42.2542366,-77.803223,-77.778021,42.242182,42.265662,1637
"Grund, Harz, Germany","Bad Grund, Göttingen, Lower Saxony, Germany, 37539",10.2372671,51.8102806,10.1422859,10.2625259,51.7512174,51.8327436,3046
"Ural Mountains, Russia, Eastern Europe","Ural Mountains, Russia",59.1619065,60.2784931,56.2201032,66.9096782,51.5667788,68.3576114,973779
"Pilton, Barnstaple, Devon, England, Northern Europe","Pilton, Barnstaple, Devon, England, United Kingdom",-4.0618675,51.0861681,-4.0633452,-4.0605058,51.0847041,51.0880125,193
"New York, USA","New York, New York, United States",-74.0059728,40.7127753,-74.258843,-73.700169,40.476578,40.917705,33854
"Cayuga County, New York, USA","Cayuga County, New York, United States",-76.5488232,42.7655231,-76.7537619,-76.265584,42.618608,43.7082155,23418
"Vailham, Herault, France, Western Europe","Vailhan, Hérault, Occitanie, France, 34320",3.303199,43.552137,3.2743478,3.317152,43.5317546,43.5841778,3250
"McConnelltown, Pennsylvania, USA","McConnellstown, Walker Township, Huntingdon County, Pennsylvania, United States, 16652",-78.0816724,40.4525739,-78.0908671,-78.041096,40.444862,40.484342,1158
"Edmonston, New York, USA","Edmeston, Edmeston, Otsego County, New York, United States, 13335",-75.2440429,42.69783,-75.274722,-75.22161,42.672867,42.718338,2927
"Danville, Pennsylvania, USA","Danville, Montour County, Pennsylvania, United States, 17821",-76.6127329,40.96342,-76.6334341,-76.5925591,40.9463209,40.980651,2558
"Solon, Iowa, USA","Solon, Johnson County, Iowa, United States, 52333",-91.4941481,41.8072031,-91.520778,-91.480085,41.7918289,41.817289,1619
"Lynton, North Devon, England, Northern Europe","Lynton, Lynton, Devon, England, United Kingdom, EX35",-3.840102,51.2296539,-3.8459422,-3.8301122,51.2192472,51.2336655,828
"Kings Mill, Perry County, Pennsylvania, USA","Kings Highway, Marysville, Perry County, Pennsylvania, United States, 17053",-76.935633,40.336712,-76.9427006,-76.9311761,40.3332733,40.3390633,460
"Saaremaa, Estonia, Eastern Europe","Saaremaa, Saare County, Estonia",22.6136407,58.4849721,21.8281004,23.328579,57.9044003,58.6421245,45142
"Cobleskill, New York, USA","Cobleskill, Cobleskill, Schoharie County, New York, United States",-74.4854172,42.677853,-74.5167831,-74.453181,42.6596089,42.694883,3249
"Finnentrop, Westphalia, Germany","Finnentrop, Olpe, Arnsberg, North Rhine-Westphalia, Germany, 57413",7.9736319,51.1736091,7.8980813,8.1217984,51.1287388,51.248423,7271
"Le Mont Peyroux, Herault, France, Western Europe","Montpeyroux, Hérault, Occitanie, France, 34150",3.506458,43.695436,3.4715211,3.5306523,43.6729471,43.7487944,3765
"Cooe Station, Pennsylvania, USA","Cole Station Lane, Columbia Township, Bradford County, Pennsylvania, United States, 16914",-76.8547825,41.8820316,-76.8573217,-76.8522763,41.8798753,41.882651,219
"18 Mile Creek, New York, USA","Eighteenmile Creek, Hamburg, Erie County, New York, United States, 14085",-78.9692034,42.7181144,-78.97055238,-78.96785442,42.71676542,42.71946338,186
"Fulton, Missouri, USA","Fulton, Callaway County, Missouri, United States, 65251",-91.9479586,38.8467082,-91.995308,-91.916365,38.8140739,38.915414,5480
"Chickasaw, Iowa, USA","Chickasaw County, Iowa, United States",-92.3813621,43.0724667,-92.554464,-92.080974,42.906732,43.2137071,23201
"19 Mile Creek, New York, USA","New York, New York, United States",-74.0059728,40.7127753,-74.258843,-73.700169,40.476578,40.917705,33854
"Brickel, Bergint, Gladbach, Germanry, Western Europe","Bergisch Gladbach, Rheinisch-Bergischer Kreis, Cologne, North Rhine-Westphalia, Germany, 51",7.1229789,50.9896479,7.061793,7.2546025,50.9199454,51.0269768,8866
"20 Mile Creek, New York, USA","New York, New York, United States",-74.0059728,40.7127753,-74.258843,-73.700169,40.476578,40.917705,33854
"Clark's Mill, Perry County, Pennsylvania, USA","Mill Road, Spring Township, Perry County, Pennsylvania, United States, 17090",-77.2102648,40.355827,-77.2139292,-77.2088987,40.3517668,40.3615006,548
"Stadtfeld, Eifel, Germany","Eifel, Gerolstein, Vulkaneifel, Rhineland-Palatinate, Germany, 54568",6.6666667,50.25,6.66531772,6.66801568,50.24865102,50.25134898,178
"Columbus, Ohio, USA","Columbus, Franklin County, Ohio, United States",-83.0032218,39.9625112,-83.2102539,-82.7713781,39.808694,40.157349,24602
"Saint-Nazaire-de-Ladarez, Herault, France, Western Europe","Saint-Nazaire-de-Ladarez, Hérault, Occitanie, France, 34490",3.0761759,43.50942,3.0448003,3.1245499,43.4840856,43.5570208,3790
"Namur, Belgium, Western Europe","Namur, Namur, Wallonia, Belgium",4.8649731,50.4649334,4.7229666,4.9843534,50.3873228,50.5311069,11222
"Villers-sur-Lesse, Belgium","Villers-sur-Lesse, Rochefort, Namur, Wallonia, Belgium, 5580",5.11367,50.15352,5.0553109,5.151061,50.1087139,50.1804259,4012
"Kerpen, Eifel, Germany, Western Europe","Kerpen, Vulkaneifel, Cologne, Rhineland-Palatinate, Germany, 54",6.7294484,50.3097384,6.6809046,6.7549686,50.2900016,50.3348769,3335
"Centerville, New York, USA","Centerville, Centerville, Allegany County, New York, United States, 14065",-78.2497346,42.4797854,-78.25108358,-78.24838562,42.47843642,42.48113438,186
"22 Mile Creek, New York, USA","Throop Avenue, Brooklyn, Kings County, New York, United States",-73.9428156,40.6923611,-73.9492079,-73.9389213,40.6796324,40.7048922,1430
"23 Mile Creek, New York, USA","New York, New York, United States",-74.0059728,40.7127753,-74.258843,-73.700169,40.476578,40.917705,33854
"24 Mile Creek, New York, USA","New York, New York, United States",-74.0059728,40.7127753,-74.258843,-73.700169,40.476578,40.917705,33854
"York, New York, USA","York, York, Livingston County, New York, United States",-77.8856212,42.8710697,-77.906983,-77.868503,42.849942,42.882148,1863
"25 Mile Creek, New York, USA, North America","Mile Creek, New York, United States",-75.26029503,43.54026231,-75.3076904,-75.2128996,43.5197878,43.5607368,4455
"Thedford, Ontario, Canada","Thedford, Lambton Shores, Lambton County, Ontario, Canada, N0M 2N0",-81.8546647,43.165434,-81.8676131,-81.8435966,43.158752,43.1718161,1146
"Hustonville, Kentucky, USA","Hustonville, Lincoln County, Kentucky, United States",-84.8157827,37.4731315,-84.825191,-84.805404,37.469384,37.489023,930
"London, Canada, North America","London, London, Middlesex County, Ontario, Canada",-81.2452768,42.9849233,-81.390852,-81.1063879,42.824517,43.073245,14980
"Helderberg, New York, USA","Helderberg, Albany, Bethlehem, Albany County, New York, United States, 12208",-73.7933809,42.6518007,-73.8063671,-73.784965,42.6450789,42.657579,942
"26 Mile Creek, New York, USA","New York, New York, United States",-74.0059728,40.7127753,-74.258843,-73.700169,40.476578,40.917705,33854
"Wissenbach, Germany, Western Europe","Wissenbach, Eschenburg, Lahn-Dill-Kreis, Gießen, Hessen, Germany, 35713",8.3220306,50.7899343,8.3143404,8.3311768,50.7846986,50.7978894,796
"Hamilton, Ontario, Canada","Hamilton, Hamilton, Ontario, Canada",-79.8711024,43.2557206,-80.2487071,-79.6175911,43.0505639,43.4710569,31538
"West Laurens, New York, USA","West Laurens, Laurens, Otsego County, New York, United States, 13796",-75.1715551,42.5297991,-75.17290408,-75.17020612,42.52845012,42.53114808,186
"New Bloomfield, Pennsylvania, USA","New Bloomfield, Perry County, Pennsylvania, United States, 17068",-77.1872047,40.4197907,-77.2004239,-77.1771579,40.412666,40.4257119,1077
"Ohio, USA","Ohio, United States",-82.907123,40.4172871,-84.8203051,-80.518705,38.4034229,42.323374,277724
"Barvaux, Belgium, Western Europe","Barvaux-sur-Ourthe, Durbuy, Luxembourg, Wallonia, Belgium",5.4910127,50.3505435,5.4626973,5.5222969,50.3218628,50.3757617,3581
"Budleigh Salterton, Devon, England, Northern Europe","Budleigh Salterton, Budleigh Salterton, Devon, England, United Kingdom",-3.320214,50.630998,-3.3447229,-3.3104624,50.6247843,50.6427491,1478
"Boulonnais, Pas-de-Calais, France","1, Boulevard du Bassin Napoléon, Boulogne-sur-Mer, Pas-de-Calais, Hauts-de-France, France, 62200",1.596309,50.7223815,1.59527252,1.59797048,50.72099187,50.72368983,171
"Iowa City, Iowa, USA","Iowa City, Johnson County, Iowa, United States",-91.5346169,41.6578257,-91.618424,-91.463047,41.59857,41.69662,7354
"Seneca Lake, New York, USA","Seneca Lake, New York, United States",-76.920192,42.6918497,-76.9813359,-76.8552315,42.3829761,42.8737667,20896
"Oryol, Russia, Eastern Europe","Oryol, Gorod Orel, Oryol Oblast, Russia",36.0624898,52.9668468,35.966428,36.1890429,52.89548,53.053345,10237
"Bensberg, near Koln, Germany, Western Europe","Bensberg, Bergisch Gladbach, Rheinisch-Bergischer Kreis, Cologne, North Rhine-Westphalia, Germany, 51",7.1548209,50.9647506,7.1287606,7.1785955,50.9504371,50.9729762,1904
"Port Jervis, New York, USA","Port Jervis, Orange County, New York, United States, 12771",-74.692663,41.3750937,-74.7131119,-74.6724161,41.3563859,41.393924,2691
"Cumberland, Maryland, USA","Cumberland, Allegany County, Maryland, United States, 21502",-78.7625185,39.6528654,-78.8124269,-78.710909,39.619414,39.68593,5670
"Schoharie, New York, USA","Schoharie, Schoharie, Schoharie County, New York, United States, 12157",-74.3095787,42.6659087,-74.3301381,-74.2988861,42.6521931,42.679723,1767
"Paffrath, near Koln, Germany, Western Europe","Paffrath, Bergisch Gladbach, Rheinisch-Bergischer Kreis, Cologne, North Rhine-Westphalia, Germany, 51",7.1002725,50.9989464,7.0836113,7.1162558,50.9918236,51.0065313,1404
"Ardross, Fife, Scotland, Northern Europe","Ardross Place, Glenrothes, Fife, Scotland, United Kingdom, KY6",-3.1761373,56.1878796,-3.17717778,-3.17447982,56.18652867,56.18922663,164
"Drumley near Annbank Station, Ayrshire, Scotland, Northern Europe","Drumley Drive, Mossblown, Ayr, South Ayrshire, Scotland, United Kingdom, KA6",-4.5302053,55.4919165,-4.5321818,-4.5287814,55.49053047,55.49322843,172
"Bear Island, County Cork, Republic of Ireland, Northern Europe","Island, County Cork, Ireland",-8.5114486,52.0177052,-8.5213509,-8.502308,52.0119149,52.0227831,844
"Garngad Quarry, Glasgow, Lanarkshire, Scotland, Northern Europe","Quarry Walk, Glasgow, Glasgow City, Scotland, United Kingdom, G46",-4.3081743,55.811016,-4.30964413,-4.30694617,55.80960557,55.81230353,163
"Bishopbriggs, Glasgow, Lanarkshire, Scotland, Northern Europe","Bishopbriggs, Glasgow, East Dunbartonshire Council, Scotland, United Kingdom, G64",-4.228494,55.904185,-4.2510586,-4.1837458,55.8961302,55.9242993,1672
"Melville Open Cast Coal Pit, 7 km SE of Edinburgh, Midlothian, Scotland, Northern Europe","Fountainbridge, Edinburgh, Edinburgh, Scotland, United Kingdom, EH3 9QA",-3.2078217,55.9438061,-3.20907708,-3.20637912,55.94236002,55.94505798,166
"Duloch, Dunfermline, Fife, Scotland, Northern Europe","Duloch, Pitreavie Castle, Dunfermline, Fife, Scotland, United Kingdom, KY11",-3.4000136,56.064699,-3.4174347,-3.3889388,56.0563908,56.0760715,1426
"Campsie, Stirlingshire, Scotland, Northern Europe","Campsie Road, Glasgow, Stirling, Scotland, United Kingdom, G63",-4.2977207,55.9860958,-4.3059104,-4.2892742,55.98442487,55.98712283,539
"Elie, Fife, Scotland, Northern Europe","Elie and Earlsferry, Fife, Scotland, United Kingdom",-2.8268248,56.1904895,-2.8460536,-2.8106496,56.1837027,56.194329,1091
"Boghead, near Hamilton, Lanarkshire, Scotland, Northern Europe","Boghead, Lanark, South Lanarkshire, Scotland, United Kingdom, ML11",-3.9432339,55.656,-3.9478095,-3.9376064,55.6535224,55.6602104,399
"Newfield, East Kilbride, Lanarkshire, Scotland, Europe","East Kilbride, Glasgow, South Lanarkshire, Scotland, United Kingdom",-4.1769988,55.7643524,-4.2484055,-4.1282606,55.7268994,55.791381,4291
"Gare, Lanarkshire, Scotland, Northern Europe","Lanark, Lanark, South Lanarkshire, Scotland, United Kingdom, ML11",-3.782138,55.673865,-3.7986431,-3.7358893,55.6609692,55.6914519,1772
"Abden, Fife, Scotland, Northern Europe","Fife, Scotland, United Kingdom",-3.1495175,56.2082078,-3.7394067,-2.5446682,56.0058319,56.4532634,43068
"Gateside, Beith, Ayrshire, Scotland, Northern Europe","Gateside, Beith, North Ayrshire Council, Scotland, United Kingdom, KA15",-4.6086458,55.7487137,-4.614028,-4.603161,55.744462,55.7528652,576
"Capelrig, near East Kilbride, Lanarkshire, Scotland, Northern Europe","Capelrig Drive, East Kilbride, Glasgow, South Lanarkshire, Scotland, United Kingdom, G74",-4.1568587,55.770296,-4.1581775,-4.1553374,55.7688285,55.7721791,183
"Limekilns, East Kilbride, Lanarkshire, Scotland, Northern Europe","East Kilbride, Glasgow, South Lanarkshire, Scotland, United Kingdom",-4.1769988,55.7643524,-4.2484055,-4.1282606,55.7268994,55.791381,4291
"Garngad Road, Glasgow, Lanarkshire, Scotland, Northern Europe","Royston, Glasgow, Glasgow City, Scotland, United Kingdom, G21 2NF",-4.2351286,55.8687873,-4.23647758,-4.23377962,55.86743832,55.87013628,172
"Dockra, Beith, Ayrshire, Scotland, Northern Europe","Beith, Beith, North Ayrshire Council, Scotland, United Kingdom",-4.631787,55.753797,-4.6677889,-4.616359,55.7316762,55.7675602,1813
"Roscobie, Fife, Scotland, Northern Europe","Roscobie Farm, Dunfermline, Fife, Scotland, United Kingdom, KY12 0SG",-3.4692888,56.118131,-3.473117,-3.4672889,56.1171195,56.1207529,263
"Orchard, Ayrshire, Scotland","Orchard Avenue, Ayr, South Ayrshire, Scotland, United Kingdom, KA7",-4.6168886,55.453013,-4.619068,-4.6147501,55.4517523,55.454509,197
"Limekilnburn, Lanarkshire, Scotland, Northern Europe","Limekilnburn, Hamilton, South Lanarkshire, Scotland, United Kingdom, ML3 7XW",-4.0602479,55.7327032,-4.06159688,-4.05889892,55.73135422,55.73405218,172
"Auchinbeg, near Lesmahagow, Lanarkshire, Scotland, Northern Europe","Lesmahagow, Lanark, South Lanarkshire, Scotland, United Kingdom, ML11",-3.8866787,55.6371916,-3.9064287,-3.8698319,55.6200913,55.6513321,1898
"Garngard, near station, Lanarkshire, Scotland, Northern Europe","Royston, Glasgow, Glasgow City, Scotland, United Kingdom, G21 2NF",-4.2351286,55.8687873,-4.23647758,-4.23377962,55.86743832,55.87013628,172
"Beith, Ayrshire, Scotland, Northern Europe","Beith, Beith, North Ayrshire Council, Scotland, United Kingdom",-4.631787,55.753797,-4.6677889,-4.616359,55.7316762,55.7675602,1813
"Woodhall, Edinburgh, Midlothian, Scotland, Northern Europe","Woodhall House, 184, Woodhall Road, Colinton, Juniper Green, Edinburgh, Edinburgh, Scotland, United Kingdom, EH13 0PJ",-3.2854039,55.9015388,-3.28675483,-3.28405687,55.90016712,55.90286508,170
"Thornton A, East Kilbride, Lanarkshire, Scotland, Northern Europe","Thornton Road, East Kilbride, Glasgow, South Lanarkshire, Scotland, United Kingdom, G74",-4.2430265,55.7642467,-4.2434903,-4.2395321,55.7584667,55.7705241,644
"Sand Quarry, Garngad Road, Glasgow, Lanarkshire, Scotland, Northern Europe","Royston, Glasgow, Glasgow City, Scotland, United Kingdom, G21 2NF",-4.2351286,55.8687873,-4.23647758,-4.23377962,55.86743832,55.87013628,172
"Castlecary, Stirlingshire, Scotland, Northern Europe","Stirling, Stirling, Stirling, Scotland, United Kingdom",-3.9369029,56.1165227,-3.9750002,-3.9043966,56.0918724,56.1455382,3627
"Carlops, Peeblesshire, Scotland, Northern Europe","Carlops, Penicuik, Scottish Borders, Scotland, United Kingdom, EH26 9NF",-3.3394339,55.788779,-3.34078288,-3.33808492,55.78743002,55.79012798,172
"Elk County, Kansas, USA","Elk County, Kansas, United States",-96.1526985,37.3936365,-96.5263269,-95.9610019,37.299232,37.607261,29146
"Howard, Kansas, USA","Howard, Howard Township, Elk County, Kansas, United States, 67349",-96.2636066,37.4703117,-96.2716241,-96.2521779,37.462599,37.475617,1112
"Braddyville, Iowa, USA","Braddyville, Page County, Iowa, United States, 51631",-95.0299764,40.5788801,-95.0402291,-95.0213229,40.576181,40.584962,918
"Skrinkle Haven, Pembroke Peninsula, Pembrokeshire, Wales, Northern Europe","Essex Road, Pembroke Dock, Pembrokeshire, Wales, United Kingdom, SA72 6ED",-4.9359767,51.6996261,-4.93736588,-4.93466792,51.69830862,51.70100658,175
"Boghead, near Lesmahagow, Lanarkshire, Scotland, Northern Europe","Boghead, Lanark, South Lanarkshire, Scotland, United Kingdom, ML11",-3.9432339,55.656,-3.9478095,-3.9376064,55.6535224,55.6602104,399
"Louisiana, Missouri, USA","Louisiana, Buffalo Township, Pike County, Missouri, United States, 63353",-91.0515256,39.4489351,-91.0951189,-91.027603,39.4134879,39.459605,2375
"behind Castell Dinas Bran, Llangollen, Denbighshire, Wales, Northern Europe","United Kingdom, Llangollen, Denbighshire, Wales, LL20 8D",-3.1592513,52.9793297,-3.1592513,-3.1549156,52.97710382,52.97980178,248
"Vise, Belgium, Western Europe","Vise, Liège, Wallonia, Belgium",5.6956089,50.7378047,5.6480263,5.7252479,50.6711622,50.8121222,8140
"Stuart, Iowa, USA","Stuart, Adair County, Iowa, United States, 50250",-94.3183715,41.5034243,-94.337747,-94.2942269,41.482128,41.51459,2367
"Marion County, Kentucky, USA","Marion County, Kentucky, United States",-85.2308414,37.585137,-85.5212899,-85.0301719,37.412038,37.7306579,23967
"Overton, Beith, Ayrshire, Scotland, Northern Europe","Beith, Beith, North Ayrshire Council, Scotland, United Kingdom",-4.631787,55.753797,-4.6677889,-4.616359,55.7316762,55.7675602,1813
"Spickardsville, Missouri, USA","Missouri, United States",-91.8318334,37.9642529,-95.774704,-89.098968,35.9956849,40.61364,376924
"Webb City, Missouri, USA","Webb City, Joplin Township, Jasper County, Missouri, United States",-94.4630035,37.1464475,-94.493557,-94.4295479,37.101758,37.174935,4339
"County Clare, Republic of Ireland, Northern Europe","Clare, County Clare, Ireland",-8.9811351,52.904532,-9.9386938,-8.2824241,52.554516,53.1687693,55330
"Crawfordsville, Indiana, USA","Crawfordsville, Union Township, Montgomery County, Indiana, United States, 47933",-86.8744516,40.0411536,-86.9428449,-86.8570369,40.003199,40.086193,5217
"Millecent, County Kildare, Republic of Ireland, Northern Europe","Millicent, Millicent South, County Kildare, Ireland",-6.68821,53.26809,-6.68955898,-6.68686102,53.26674102,53.26943898,175
"Van Buren County, Iowa, USA","Van Buren County, Iowa, United States",-91.9099238,40.7001158,-92.179782,-91.716432,40.5985299,40.901362,25460
"tributary of Poneil Water, Coalburn, Lanarkshire, England","Coalburn, Lanark, South Lanarkshire, Scotland, United Kingdom, ML11",-3.890822,55.59242,-3.8939324,-3.8597817,55.5835158,55.6009335,1011
"County Cork, Republic of Ireland, Northern Europe","Cork, County Cork, Ireland",-8.7285446,51.994206,-10.2378995,-7.8411276,51.4198966,52.3879603,74849
"Gameshill, near Stewarton, Ayrshire, Scotland","Stewarton, Kilmarnock, East Ayrshire Council, Scotland, United Kingdom, KA3",-4.513587,55.679957,-4.5350282,-4.495348,55.6728235,55.69041,1565
"Treak Cliff, Castleton, Derbyshire, England, Northern Europe","Buxton Road, Castleton, Hope Valley, Derbyshire, England, United Kingdom, S33 8WP",-1.7971662,53.345105,-1.79774468,-1.79504672,53.34330937,53.34600733,173
"Warsaw, Illinois, USA","Warsaw, Warsaw Township, Hancock County, Illinois, United States, 62379",-91.4345978,40.359211,-91.466999,-91.4021859,40.3318139,40.375942,3321
"Muirkirk, Ayrshire, Scotland, Northern Europe","Muirkirk, Cumnock, East Ayrshire Council, Scotland, United Kingdom, KA18",-4.066397,55.523464,-4.0902446,-4.0357087,55.5103144,55.5319522,2101
"Dryden, Midlothian, Scotland, Northern Europe","Dryden Road, Loanhead, Midlothian, Scotland, United Kingdom, EH20",-3.1669097,55.8735397,-3.1716786,-3.1621697,55.8721138,55.8750069,338
"Boonville, Missouri, USA","Boonville, Boonville Township, Cooper County, Missouri, United States, 65233",-92.7432418,38.9736392,-92.7931599,-92.679835,38.9289031,38.9841941,5618
"Boone County, Missouri, USA","Boone County, Missouri, United States",-92.3813621,39.0468547,-92.570156,-92.104374,38.6431671,39.2487951,32802
"Whitewell, Lancashire, England, Northern Europe","Whitewell, Clitheroe, Lancashire, England, United Kingdom, BB7 3BN",-2.520706,53.917805,-2.52205498,-2.51935702,53.91645602,53.91915398,174
"Peoria County, Illinois, USA","Peoria County, Illinois, United States",-89.7755338,40.7156396,-89.989018,-89.447693,40.5132249,40.975055,28838
"Cedar Creek, Nebraska, USA","Cedar Creek, Eight Mile Grove Precinct, Cass County, Nebraska, United States, 68037",-96.1023468,41.0467204,-96.114791,-96.0900761,41.035769,41.0519739,1185
"Hullerhurst, Stevenson, Ayrshire, Scotland, Northern Europe","Stevenston, Stevenston, North Ayrshire Council, Scotland, United Kingdom, KA20",-4.76041,55.641817,-4.7739833,-4.7329934,55.6276826,55.6579545,1791
"Hardin County, Kentucky, USA","Hardin County, Kentucky, United States",-86.0121573,37.6565708,-86.277558,-85.676072,37.4403079,38.0050728,33558
"Davis County, Missouri, USA","Daviess County, Missouri, United States",-93.9878427,39.9949074,-94.2187999,-93.7588681,39.7846741,40.1366261,25084
"Craigenglen, Stirlingshire, Scotland, Northern Europe","Stirling, Stirling, Stirling, Scotland, United Kingdom",-3.9369029,56.1165227,-3.9750002,-3.9043966,56.0918724,56.1455382,3627
"Bowertrapping, near Dalry, Ayrshire, Scotland","Dalry, Dalry, North Ayrshire Council, Scotland, United Kingdom, KA24",-4.723153,55.711116,-4.7411539,-4.6939425,55.696404,55.7167934,1942
"Castleton, Derbyshire, England, Northern Europe","Castleton, Hope Valley, Derbyshire, England, United Kingdom, S33",-1.7765105,53.3436814,-1.7819689,-1.7692815,53.339535,53.3460937,551
"Kansas City, Missouri, USA","Kansas City, Jackson County, Missouri, United States",-94.5785667,39.0997265,-94.765567,-94.385448,38.824259,39.3562099,32998
"Poolvash, Isle of Man, England, Northern Europe",Isle of Man,-4.548056,54.236107,-4.8736609,-4.2706182,54.0186764,54.4369363,28730
"England, Northern Europe","England, United Kingdom",-1.1743197,52.3555177,-6.4185458,1.7629159,49.8647411,55.8116598,429950
"Roughwood, Beith, Ayrshire, Scotland, Northern Europe","Beith, Beith, North Ayrshire Council, Scotland, United Kingdom",-4.631787,55.753797,-4.6677889,-4.616359,55.7316762,55.7675602,1813
"Arisaig, Nova Scotia, Canada","Arisaig, Antigonish County, Nova Scotia, Canada, B2G 2L1",-62.166667,45.75,-62.16801598,-62.16531802,45.74865102,45.75134898,183
"Burlington, Iowa, USA","Burlington, Des Moines County, Iowa, United States",-91.1128901,40.8076529,-91.180263,-91.078285,40.76069,40.847605,5311
"Burlington, Illinois, USA","Burlington, Burlington Township, Kane County, Illinois, United States",-88.5481412,42.0528038,-88.587316,-88.513773,42.011092,42.066781,3241
"Madison County, Kentucky, USA","Madison County, Kentucky, United States",-84.3121264,37.7143001,-84.525643,-84.073764,37.5152789,37.917546,29040
"Thornliebank, Renfrewshire, Scotland, Northern Europe","Thornliebank, Glasgow, East Renfrewshire, Scotland, United Kingdom, G46",-4.317434,55.804662,-4.3272741,-4.3056678,55.7974387,55.8115247,1014
"Poniel Water, Coalburn, Lanarkshire, Scotland","Poniel Water, Lanark, South Lanarkshire, Scotland, United Kingdom, ML11",-3.86898538,55.58859909,-3.9364105,-3.8015602,55.5698381,55.6073601,4736
"Clarksville, Albany, New York, USA, North America","Clarksville, New Scotland, Albany County, New York, United States",-73.9638411,42.5758581,-73.9848706,-73.9402187,42.5702087,42.5842842,1837
"Congleton Edge, Nobold Quarry, Shropshire, England, Northern Europe","Nobold, Shrewsbury, Shropshire, England, United Kingdom, SY5",-2.7799958,52.6871232,-2.7812322,-2.7773374,52.68546927,52.68816723,202
"Torness Shore, Thornton Loch, East Lothian, Scotland, Northern Europe","Dunbar, East Lothian, Scotland, United Kingdom, EH42 1QU",-2.4066617,55.9691929,-2.40774208,-2.40504412,55.96784687,55.97054483,164
"Sedgeley, Worcestershire, England, Northern Europe","Sedgley, Sedgley, Dudley, West Midlands, England, United Kingdom, DY3 1NU",-2.1217238,52.5428691,-2.12307278,-2.12037482,52.54152012,52.54421808,176
"Glucksbrun, Thuringia, Germany, Western Europe","Thuringia, Germany",10.845346,51.0109892,9.876984,12.6539326,50.2043467,51.6489359,112917
"Gera, Germany, Western Europe","Gera, Kreisfreie Stadt Gera, Thuringia, Germany, 07",12.0807203,50.8850706,11.9980384,12.1695209,50.7986176,50.9766184,11243
"Marathon, Texas, USA","Marathon, Brewster County, Texas, United States, 79842",-103.2446205,30.2051688,-103.2652721,-103.220731,30.191934,30.2362029,2471
"Hildelang, Bavarian Alps, Germany, Western Europe","Bad Hindelang, Oberallgäu, Swabia, Bavaria, Germany, 87541",10.3704552,47.5058367,10.3218417,10.4759983,47.3703237,47.5612206,10053
"Wurttemberg, Germany, Western Europe","Baden-Württemberg, Germany",9.3501336,48.6616037,7.511811,10.495573,47.5323664,49.7913278,150816
"Stinchcombe, Gloucester, England","Stinchcombe, Dursley, Gloucestershire, England, United Kingdom, GL11 6BA",-2.38732,51.685591,-2.38866898,-2.38597102,51.68424202,51.68693998,177
"Radstock, Somerset, England, Northern Europe","Radstock, Radstock, Bath and North East Somerset, England, United Kingdom",-2.446092,51.292017,-2.4756875,-2.4173722,51.2737507,51.3055846,2508
"Bitton, Bristol, England, Northern Europe","Bitton, Bristol, South Gloucestershire, England, United Kingdom, BS30",-2.459913,51.4248205,-2.4690597,-2.4544636,51.4205114,51.4289528,596
"Cam, Gloucestershire, England, Europe","Cam, Gloucestershire, England, United Kingdom, GL11",-2.3648537,51.7071317,-2.406789,-2.3158681,51.6803654,51.7203764,3692
"Charmailles, Haute-Saone, France, Western Europe","Haute-Saône, Bourgogne-Franche-Comté, France",6.1556282,47.7569806,5.3669355,6.8249356,47.252542,48.0241356,58203
"Stroud, Gloucestershire, England, Northern Europe","Stroud, Stroud, Gloucestershire, England, United Kingdom",-2.217758,51.745734,-2.2637751,-2.1827343,51.7239782,51.76052,2925
"Montmajou, Herault, France, Northern Europe","Montmajou, Cazouls-lès-Béziers, Hérault, Occitanie, France, 34370",3.071654,43.404508,3.07030502,3.07300298,43.40315902,43.40585698,185
"Keynsham, Somerset, England, Northern Europe","Keynsham, Bristol, Bath and North East Somerset, England, United Kingdom",-2.502526,51.415059,-2.5348386,-2.4606532,51.3902435,51.4347791,3561
"Lyme Regis, Dorset, England, Northern Europe","Lyme Regis, Dorset, England, United Kingdom",-2.936639,50.725156,-2.9555214,-2.9277364,50.7183204,50.7369428,1454
"Longeville, Haute-Saone, France, Western Europe","Longeville, Doubs, Bourgogne-Franche-Comté, France",6.2265119,47.030055,6.206226,6.2555625,47.0088682,47.0572213,2815
"Black Venn, Dorset, England, Northern Europe","Black Ven, Bridport, Dorset, England, United Kingdom, DT6 6BW",-2.9111359,50.7345501,-2.91248488,-2.90978692,50.73320112,50.73589908,178
"Creissan, Herault, France, Western Europe","Creissan, Hérault, Occitanie, France, 34370",3.010079,43.374445,2.9775515,3.0267367,43.3576629,43.3942212,2579
"Vesoul, Haute-Saone, France, Western Europe","Vesoul, Haute-Saône, Bourgogne-Franche-Comté, France, 70000",6.15428,47.619788,6.130271,6.1742835,47.612784,47.651804,1966
"Grandborough, Warwickshire, England, Northern Europe","Grandborough, Rugby, Warwickshire, England, United Kingdom, CV23",-1.281004,52.2987211,-1.2878224,-1.2759604,52.2941996,52.3015922,470
"Bouldish, Welton, Somerset, England, Northern Europe","Welton, Midsomer Norton, Radstock, Bath and North East Somerset, England, United Kingdom, BA3",-2.475859,51.2969904,-2.47698468,-2.47428672,51.29557822,51.29827618,176
"Simon-La-Vineuse, Vendee, France, Western Europe","Simon-la-Vineuse, Sainte-Hermine, Vendee, Pays de la Loire, France, 85210",-1.087236,46.56255,-1.08858498,-1.08588702,46.56120102,46.56389898,182
"Angreville, Calvados, France, Western Europe","Douvrend, Seine-Maritime, Normandy, France, 76630",1.322108,49.867902,1.2781941,1.3558133,49.8424759,49.8993539,4239
"Calvados, France, Western Europe","Calvados, Normandy, France",-0.4330578,49.1213315,-1.159764,0.4464865,48.7516927,49.4299242,67264
"Boudreville, Cote-d'Or, France, Western Europe","Boudreville, Côte-d'Or, Bourgogne-Franche-Comté, France, 21520",4.826412,47.935123,4.810634,4.8660942,47.9116256,47.9456494,2866
"Dovecez, Doubs, France, Western Europe","Doubs, Doubs, Bourgogne-Franche-Comté, France, 25300",6.349001,46.9276,6.3306861,6.399576,46.9157777,46.9485212,1917
"Tuisse, Pouilly, Saone-et-Loire, France, Western Europe","Pouilly, Solutré-Pouilly, Saône-et-Loire, Bourgogne-Franche-Comté, France, 71960",4.740503,46.290768,4.73915402,4.74185198,46.28941902,46.29211698,182
"Eype, Bridport, Dorset, England, Europe","Eype, Bridport, Dorset, England, United Kingdom, DT6",-2.782735,50.721437,-2.7853658,-2.7752021,50.7163204,50.7238977,598
"Stoke Knap, Dorset, England, Europe","Norway Lane, Stoke Abbott, Beaminster, Dorset, England, United Kingdom, DT8 3JZ",-2.7895675,50.8105572,-2.79086348,-2.78816552,50.80913732,50.81183528,173
"Sapperton Tunnel, Gloucestershire, England","40, Sapperton, Cirencester, Gloucestershire, England, United Kingdom, GL7 6LQ",-2.082618,51.728648,-2.08345448,-2.08075652,51.72673537,51.72943333,155
"Barrow Hill, Leicester, England, Northern Europe","Barrow Hill, Chesterfield, Derbyshire, England, United Kingdom, S43",-1.3729273,53.2745866,-1.3878235,-1.3685511,53.2722974,53.2798485,654
"Vendee, France, Western Europe","Vendee, Pays de la Loire, France",-1.4482662,46.6613966,-2.4006683,-0.5381475,46.2666616,47.0850153,83855
"Saint-Honorine, Calvados, France, Western Europe","Sainte-Honorine-du-Fay, Calvados, Normandy, France, 14210",-0.487876,49.071679,-0.5236102,-0.4512149,49.0603043,49.0825744,2902
"Langenberg, Germany, Western Europe","Langenberg, Gütersloh, Detmold, North Rhine-Westphalia, Germany, 33449",8.3230516,51.7759584,8.2519971,8.3684197,51.7222289,51.8048957,4491
"Sainte-Pezenne, Deux-Sevres, France, Western Europe","Sainte-Pezenne, Niort, Deux-Sèvres, Nouvelle-Aquitaine, France, 79000",-0.474515,46.349737,-0.47586398,-0.47316602,46.34838802,46.35108598,182
"Rockhill, Welton, Somerset, England, Northern Europe","Rock Hill, Taunton, Somerset, England, United Kingdom, TA3",-2.9637276,51.0015973,-2.9671297,-2.9589868,50.9997072,51.0044234,318
"Le Simon, La Vineuse, Vendee, France, Western Europe","Simon-la-Vineuse, Sainte-Hermine, Vendee, Pays de la Loire, France, 85210",-1.087236,46.56255,-1.08858498,-1.08588702,46.56120102,46.56389898,182
"North Road, Ilminster, Somerset, England, Northern Europe","North Street, Ilminster, Somerset, England, United Kingdom, TA19",-2.9105597,50.9274265,-2.91201898,-2.90932102,50.92609057,50.92878853,175
"Langrune-sur-Mer, Calvados, France","Langrune-sur-Mer, Calvados, Normandy, France, 14830",-0.37271,49.322327,-0.4020883,-0.3583442,49.2996381,49.3276695,1202
"La Heve, Le Havre, Seine-Maritime, France, Western Europe","Promenade de la plage, Le Havre, Seine-Maritime, Normandie, France, 76600",0.0927772,49.4955921,0.09187307,0.09457103,49.49432682,49.49702478,155
"Amfreville, Calvados, France, Northern Europe","Amfreville, Calvados, Normandy, France, 14860",-0.234694,49.248568,-0.2694236,-0.2115074,49.2385324,49.2630397,2332
"Pliensbach, Baden-Wurttemberg, Germany, Western Europe","Pliensbach, Zell unter Aichelberg, Göppingen, Stuttgart, Baden-Württemberg, Germany, 73119",9.5857924,48.6522094,9.5821604,9.5878175,48.6500768,48.6540408,252
"Denouville, Calvados, France","Démouville, Calvados, Normandy, France, 14840",-0.26911,49.17822,-0.2777543,-0.2433549,49.1615585,49.1886415,1957
"Arco, Tyrol, Austria, Europe","Tyrol, Austria",11.601487,47.2537414,10.0978273,12.9659975,46.6515599,47.7430379,116313
"Luc-sur-Mer, Calvados, France","Luc-sur-Mer, Calvados, Normandy, France",-0.3569536,49.3166028,-0.372601,-0.3398404,49.2930426,49.3219784,1380
"Bitton, near Bristol, Gloucestershire, England, Northern Europe","Bitton, Bristol, South Gloucestershire, England, United Kingdom, BS30",-2.459913,51.4248205,-2.4690597,-2.4544636,51.4205114,51.4289528,596
"Ciply, Mons, Belgium, Western Europe","Ciply, Mons, Hainaut, Wallonia, Belgium",3.9462109,50.4219839,3.9291888,3.9588847,50.4032162,50.4233482,913
