originalPlace,interpretedPlace,longitude,latitude,xmin,xmax,ymin,ymax,uncertainty
"USA, Nebraska, Seward County, Milford","Milford, Precinct O, Seward County, Nebraska, United States, 68405",-97.0505887,40.7744509,-97.0661381,-97.0398041,40.7634769,40.781731,1218
USA. Wyoming. Niobrara County. Lance Creek.,"Lance Creek, Niobrara County, Wyoming, United States",-104.6419032,43.0324679,-104.7758499,-104.567895,42.99125,43.094254,9136
"USA. Texas. West Texas. Georgetown, Washita.","Georgetown, Williamson County, Texas, United States",-97.6779842,30.6332618,-97.832725,-97.585174,30.570766,30.7525309,15934
USA. Texas. Tarrant County. Fort Worth. 10 mi S of Fort Worth.,"Fort Worth Trail, Fort Worth, Tarrant County, Texas, United States, 76102",-97.3418311,32.7526272,-97.34329953,-97.34060157,32.75126977,32.75396773,188
"USA. Texas. Brewster County. 0.5 mi N of hill 5611, Hess Canyon, Glass Mountains, west TX.","Hess Canyon, Brewster County, Texas, United States, 79842",-103.2071162,30.3337771,-103.2084652,-103.2057672,30.33242812,30.33512608,198
"USA. South Dakota. Dewey County. Moreau River. Just below the top of the first prominent spur, 0.2 miles northwest of the southern part of location C0088, and 2 miles southwest of Green Grass.","Moreau River, South Dakota, United States",-101.7472359,45.23776582,-102.8710585,-100.6234133,45.1081969,45.3673348,89310
"USA. South Dakota. Dewey County. 450 ft N of loc C0242, at SW corner of Long's Ridge, 7.5 mi W of Whitehorse.","Dewey County, South Dakota, United States",-100.7110465,45.2486497,-101.5010729,-100.2572859,44.724153,45.473041,43427
"USA, South Dakota, Corson County, steep slopes on both sides of a tributary gully, 0-0.3 mi S of the Grand River, and 4 mi NNE of Miscol.","Miscol, West Corson, Corson County, South Dakota, United States, 57633",-101.1623621,45.6769391,-101.1637111,-101.1610131,45.67559012,45.67828808,183
"USA. South Dakota. Corson County. conc. 13, SW-facing bluff on small knob .1 mi S of wooded gully, and .1 mi W of N end of NW-trending ridge, and 1.5 mi E of Grand River, and 7.2 mi E of Miscol.","Corson County, South Dakota, United States",-101.690976,45.7623333,-102.0009831,-100.308178,45.4722121,45.944845,40304
"USA. South Dakota. Corson County. SW-facing bluff on small knob, 0.1 mi S of wooded gully, 0.1 mi W of the N end of NW-trending ridge, 1.5 mi E of Grand River, 7.2 mi E of Miscol.","Miscol, West Corson, Corson County, South Dakota, United States, 57633",-101.1623621,45.6769391,-101.1637111,-101.1610131,45.67559012,45.67828808,183
"USA, South Dakota, Corson County, exposure on the west side of northwesterly trending spur, 0.1 miles south of wooded gully, 1.5 miles east of Grand River, and 7.4 miles east of Miscol.","Miscol, West Corson, Corson County, South Dakota, United States, 57633",-101.1623621,45.6769391,-101.1637111,-101.1610131,45.67559012,45.67828808,183
"USA. South Dakota. Corson County. Exposures along the south side of Grand River, just east of a small tributary gulley, 1.2 miles east-northeast of Petersen ranch house, 4.5 miles east-northeast of Miscol.","Miscol, West Corson, Corson County, South Dakota, United States, 57633",-101.1623621,45.6769391,-101.1637111,-101.1610131,45.67559012,45.67828808,183
"USA. South Dakota. Corson County. SW-facing bluff on small knob .1 mi S of wooded gully, .1 mi W of N end of NW-trending ridge, 1.5 mi E of Grand River, 7.2 mi E of Miscol.","Miscol, West Corson, Corson County, South Dakota, United States, 57633",-101.1623621,45.6769391,-101.1637111,-101.1610131,45.67559012,45.67828808,183
"USA. South Dakota. Corson County. Near creek level, tributary creek on north side of High Bank Creek, 11 miles southwest of Little Eagle.","High Bank Creek, East Corson, Corson County, South Dakota, United States, 57657",-100.8957328,45.63806378,-100.9056322,-100.8858334,45.6300246,45.6461029,1181
"USA. South Dakota. Ziebach County. Gravel pit on the south side of Moreau River just northwest of SD Rt. 65, 6.8 miles east of Thunder Butte village.","Moreau River, South Dakota, United States",-101.7472359,45.23776582,-102.8710585,-100.6234133,45.1081969,45.3673348,89310
"USA. South Dakota. Dewey County. Float, concentration 1, face and outcrops at two separate sites around the south end of the SSE-trending ridge at the southwest corner of Long's Ridge, 7.3 miles west of Whitehorse.","Dewey County, South Dakota, United States",-100.7110465,45.2486497,-101.5010729,-100.2572859,44.724153,45.473041,43427
"USA, Texas, Parker County, White Settlement Road, 15 mi W of Fort Worth","White Settlement Road, Parker County, Texas, United States",-97.6424762,32.7870947,-97.732282,-97.5441879,32.7735406,32.7890146,8547
"USA, Montana, Custer County","Custer County, Montana, United States",-105.6225,46.2160876,-106.1917529,-104.732666,45.786963,46.860823,64957
"USA, Texas, Travis County, Austin, 200 yd S of lowwater bridge, E Austin Dam","Tom Miller Dam, Austin, Travis County, Texas, United States, 78746",-97.7862873,30.2940748,-97.78829168,-97.78559372,30.29256522,30.29526318,148
"USA, Wyoming, Weston County, Newcastle. Two sites, 8 miles west and 8 miles southwest of Newcastle.","Newcastle, Weston County, Wyoming, United States, 82701",-104.2049408,43.8547003,-104.2699491,-104.172,43.840154,43.880623,3912
"USA, South Dakota, Corson County, section H, southwest-facing bluffs at the west end of the divide, west of the trail, about 1 mile east of the Grand River, 6 miles southeast of Bullhead.","Corson County, South Dakota, United States",-101.690976,45.7623333,-102.0009831,-100.308178,45.4722121,45.944845,40304
"USA. South Dakota. Ziebach County. Bluffs south of the Moreau River, between the forks of the county roads leading northwest to the village and north to the bridge, approximately 1 mile southeast of Thunder Butte village.","Moreau River, South Dakota, United States",-101.7472359,45.23776582,-102.8710585,-100.6234133,45.1081969,45.3673348,89310
"USA. South Dakota. Corson County. 3.6 ft below persistent layer, exposure along bluffs S of Grand River, and along W side of tributary gully, and 1.2 mi ENE of Petersen ranch house, and 4.5 mi ENE of Miscol.","Miscol, West Corson, Corson County, South Dakota, United States, 57633",-101.1623621,45.6769391,-101.1637111,-101.1610131,45.67559012,45.67828808,183
"USA. South Dakota. Dewey County. Moreau River. Just below top of first prominent spur 0.2 miles northwest of the southern part of location C0088, and 2 miles southwest of Green Grass.","Moreau River, South Dakota, United States",-101.7472359,45.23776582,-102.8710585,-100.6234133,45.1081969,45.3673348,89310
"USA. South Dakota. Ziebach County. Bluffs south of the Moreau River, between the forks of the county roads leading northwest to the village and north to the bridge, about 1 mi southeast of Thunder Butte village.","Thunder Butte, North Ziebach, Ziebach County, South Dakota, United States, 57623",-101.6701522,45.2127556,-101.6715012,-101.6688032,45.21140662,45.21410458,184
"USA. South Dakota. Corson County. Grand River. E end of SW-facing bluffs of spur trending SE, 3 mi WNW of Little Eagle.","Grand River, East Corson, Corson County, South Dakota, United States, 57601",-100.471525,45.5769395,-100.472874,-100.470176,45.57559052,45.57828848,183
"USA, South Dakota, Campbell County, Pollock, small faces at top of escarpment to the east of Missouri River, 11.5 miles south of Pollock.","Pollock, North Campbell, Campbell County, South Dakota, United States, 57648",-100.2884568,45.9013832,-100.296559,-100.275802,45.8970709,45.904491,791
"USA. South Dakota. Corson County. Steep slopes on both sides of a tributary gully, 0-0.3 mi S of the Grand River, and 4 mi NNE of Miscol. Lens of Gervillia in matrix.","Miscol, West Corson, Corson County, South Dakota, United States, 57633",-101.1623621,45.6769391,-101.1637111,-101.1610131,45.67559012,45.67828808,183
"USA. South Dakota. Corson County. Steep slopes on both sides of a tributary gully, 0-.3 mi south of the Grand River, and 4 mi NNE of Miscol.","Miscol, West Corson, Corson County, South Dakota, United States, 57633",-101.1623621,45.6769391,-101.1637111,-101.1610131,45.67559012,45.67828808,183
"USA. South Dakota. Corson County. Upper surface of knob on large tabular layer, steep slopes on both sides of tributary gully, 0-.3 mi S of the Grand River, and 4 mi NNE of Miscol.","Miscol, West Corson, Corson County, South Dakota, United States, 57633",-101.1623621,45.6769391,-101.1637111,-101.1610131,45.67559012,45.67828808,183
"USA, South Dakota, Corson County, Grand River. Small outcrops on shoulders of spurs east and west of the main gully draining southwest quarter of section 24, 9 miles west of Little Eagle.","Grand River, East Corson, Corson County, South Dakota, United States, 57601",-100.471525,45.5769395,-100.472874,-100.470176,45.57559052,45.57828848,183
"USA. South Dakota. Corson County, in place in slump block at the south end of the cut, steep slopes on both sides of the tributary gully, 0-0.3 mi south of the Grand River, and 4 mi north-northeast of Miscol.","Miscol, West Corson, Corson County, South Dakota, United States, 57633",-101.1623621,45.6769391,-101.1637111,-101.1610131,45.67559012,45.67828808,183
"USA. South Dakota. Corson County. Steep slopes on both sides of a tributary gully, 0-.3 mi south of the Grand River, and 4 mi north-northeast of Miscol.","Miscol, West Corson, Corson County, South Dakota, United States, 57633",-101.1623621,45.6769391,-101.1637111,-101.1610131,45.67559012,45.67828808,183
"USA. South Dakota. Corson County. Exposures along south to southeast-trending spur 0.2-0.7 miles west of McLaughlin-Little Eagle road, and 3 miles north-northwest of Little Eagle.","Corson County, South Dakota, United States",-101.690976,45.7623333,-102.0009831,-100.308178,45.4722121,45.944845,40304
"USA, Texas, Tarrant County, Fort Worth, excavation for building.","5265, Shelby Road, Fort Worth, Tarrant County, Texas, United States, 76140, 7729",-97.248391,32.612282,-97.24973193,-97.24703397,32.60995887,32.61265683,134
USA. Texas. Tarrant County. Fort Worth. Creek bed 1 mile east of Texas Christian University.,"2800, South University Drive, Fort Worth, Tarrant County, Texas, United States, 76109",-97.3628041,32.7078531,-97.3700623,-97.3535439,32.7060848,32.7116464,708
"USA, Texas, Grayson County, 4 mi N of Denison.","Denison, Grayson County, Texas, United States",-96.536658,33.7556593,-96.6812529,-96.49387,33.694649,33.857308,11951
"USA, Texas, Denton County, Justin, Creek, 5 mi W of Justin","Justin, Denton County, Texas, United States, 76247",-97.2961286,33.0848442,-97.356206,-97.28193,33.0643329,33.106119,2706
USA. Texas. McLennan County. 2 mi S of McGregor.,"McGregor, McLennan County, Texas, United States",-97.4091792,31.4440557,-97.5033949,-97.293953,31.377453,31.4965421,11610
"Italy, Alpe di Specie.",Alps,9.6567822,46.8873983,5.1567756,16.1832647,43.665557,48.154632,502718
"USA, Pennsylvania, Bradford County, roadcut on north side of paved road connecting Windham Center and Windham Heights, 0.2 miles west of the village of Windham Center.","Windham Center, Windham Township, Bradford County, Pennsylvania, United States, 18837",-76.3263245,41.9645189,-76.32767348,-76.32497552,41.96316992,41.96586788,187
"USA. South Dakota. Corson County. High, west-facing cut on the south side of Standing Cloud Creek, 0.1 miles south of its confluence with Firesteel Creek, and 12.2 miles south-southeast of Black Horse.","Standing Cloud Creek, Corson County, South Dakota, United States, 57633",-101.3382022,45.54064679,-101.3522936,-101.3241107,45.5363229,45.5449707,1201
"USA. South Dakota. Corson County. Grand River. Southwest-facing exposure on southeast-trending ridge, 3.5 miles east-northeast of Little Eagle.","Grand River, East Corson, Corson County, South Dakota, United States, 57601",-100.471525,45.5769395,-100.472874,-100.470176,45.57559052,45.57828848,183
"USA, Kansas, Ellis County, Fort Hays.","Hays, Big Creek Township, Ellis County, Kansas, United States, 67601, 9212",-99.341484,38.862995,-99.34281648,-99.34011852,38.86163572,38.86433368,190
"USA, South Dakota, Badlands.","Badlands National Park, South Dakota, United States",-102.3396912,43.8553804,-102.7409949,-102.0231544,43.4570907,43.9097051,26145
"USA, Kentucky, Lincoln County, Moreland","Lincoln County, Kentucky, United States",-84.6479124,37.4751264,-84.86013,-84.4467189,37.238328,37.640369,25542
"USA. Kentucky. Kenton County. Covington. RR shops, S of Covington.","1708, Scott Street, Austinburg, Covington, Kenton County, Kentucky, United States, 41011, 3477",-84.504798,39.0705532,-84.50629708,-84.50359912,39.06918117,39.07187913,180
USA. Nebraska. Cass County. Nehawka. Zone B.,"Nehawka, Nehawka Precinct, Cass County, Nebraska, United States, 68413",-95.9915664,40.8303487,-95.997762,-95.9834449,40.824676,40.834061,800
USA. South Dakota. Ziebach County. 0.5 mi SSW of St. Patrick Butte and 0.5 mi E of Moreau River.,"Saint Patrick Butte, North Ziebach, Ziebach County, South Dakota, United States, 57623",-101.5126538,45.2430335,-101.5140028,-101.5113048,45.24168452,45.24438248,184
"USA. South Dakota. Ziebach County. Bluffs south of the Moreau River, between the forks of the county roads leading northwest to the village and north to the bridge, and about 1 mile southeast of Thunder Butte village.","Moreau River, South Dakota, United States",-101.7472359,45.23776582,-102.8710585,-100.6234133,45.1081969,45.3673348,89310
"USA. South Dakota. Ziebach County. 0.1 mi E of Moreau River, and 1.1 mi SSW of St. Patrick Butte bench mark.","Saint Patrick Butte, North Ziebach, Ziebach County, South Dakota, United States, 57623",-101.5126538,45.2430335,-101.5140028,-101.5113048,45.24168452,45.24438248,184
"USA. South Dakota. Ziebach County. Bluffs south of the Moreau River, between the forks of the county roads leading northwest to the village and north to the bridge, about 1 mile southeast of Thunder Butte village.","Moreau River, South Dakota, United States",-101.7472359,45.23776582,-102.8710585,-100.6234133,45.1081969,45.3673348,89310
"USA. South Dakota. Ziebach County. Moreau River. Exposures on both sides of SE-trending nose of high bluff at confluence of Thunder Butte Creek and Beaver Trap Creek, and 2 mi NW of Thunder Butte village.","Beaver Trap Creek, North Ziebach, Ziebach County, South Dakota, United States, 57623",-101.6976513,45.2310884,-101.6990003,-101.6963023,45.22973942,45.23243738,184
USA. Mississippi. Alcorn County. Brickyard W of Corinth.,"Corinth, Alcorn County, Mississippi, United States, 38834",-88.5222702,34.9342548,-88.576378,-88.4629849,34.893183,34.9960621,6724
USA. Mississippi.,"Mississippi, United States",-89.3985283,32.3546679,-91.6550091,-88.097888,30.139845,34.996099,316825
"Netherlands, Limburg Province, Maastricht.","Maastricht, Maastricht, Limburg, Netherlands",5.6909725,50.8513682,5.6388724,5.7629404,50.8038126,50.9117809,6439
United Kingdom. England. London. Highgate. London Clay.,"Clay Street, London, Greater London, England, United Kingdom, W1U 6QX",-0.1579639,51.5195934,-0.15930233,-0.15660437,51.51827542,51.52097338,174
USA. South Dakota. Ziebach County. Basal part of banded beds around prominent small butte hill 2355 that is 0.5 mi SSW of St. Patrick Butte benchmark and 0.5 mi E of Moreau River.,"Ziebach County, South Dakota, United States",-101.702202,44.8481045,-102.0004619,-101.136162,44.5111361,45.472871,44288
"USA. South Dakota. Ziebach County. Base of Iron Lightning badlands face, 3 mi S of Moreau River, and 4.1 mi SSE of Iron Lightning.","Iron Lightning, North Ziebach, Ziebach County, South Dakota, United States, 57623",-101.8462645,45.1797007,-101.8476135,-101.8449155,45.17835172,45.18104968,184
"USA. South Dakota. Corson County. conc. 1, section G, NE face, SW-facing bluffs at W end of divide, W of trail, about 1 mi E of Grand River, 6 mi SE of Bullhead.","Corson County, South Dakota, United States",-101.690976,45.7623333,-102.0009831,-100.308178,45.4722121,45.944845,40304
USA. Colorado. Moffat County. Spring Creek - Lay section.,"Lay, Moffat County, Colorado, United States, 81625",-107.8820209,40.5266363,-107.8833699,-107.8806719,40.52528732,40.52798528,188
"USA, South Dakota, Meade County, buttes southwest of the intersection of SD Route 73 and Cherry Creek, Leo","South Dakota 73, Meade County, South Dakota, United States",-102.0479749,44.8267706,-102.1095581,-101.9998922,44.6183318,45.0368254,23650
"USA. South Dakota. Pennington County. Creighton. Gulley, 4.4 mi S of Creighton.","Creighton, Rainy Creek/Cheyenne Township, Pennington County, South Dakota, United States, 57790",-102.2079358,44.2549857,-102.2092848,-102.2065868,44.25363672,44.25633468,185
"USA. South Dakota. Corson County. 2.5 mi S of Wakpala, near the railroad cut east of the new railroad bridge and causeway, across Grand River.","Wakpala, Mission Township, Corson County, South Dakota, United States, 57658",-100.5363712,45.6571949,-100.540634,-100.528662,45.649786,45.6691439,888
USA. Texas. Travis County. Austin. Quarry W of Austin.,"Quarry, Austin, Travis County, Texas, United States, 78759",-97.7430283,30.4033523,-97.7456019,-97.736568,30.398639,30.4070931,578
"USA, Texas, Travis County, west of Austin.","Old West Austin, Austin, Travis County, Texas, United States",-97.7618881,30.2731462,-97.7712265,-97.7505807,30.2663611,30.2858908,1172
"USA, Texas, Travis County, Austin","Austin, Travis County, Texas, United States",-97.7430608,30.267153,-97.938354,-97.5275861,30.075576,30.5166519,28370
USA. Texas. Travis County. Georgetown. West of Austin.,"Old West Austin, Austin, Travis County, Texas, United States",-97.7618881,30.2731462,-97.7712265,-97.7505807,30.2663611,30.2858908,1172
"USA. Wyoming. Sweetwater County. Rock Springs uplift, Thayer Junction-Point of Rocks section.","Rock Springs, Sweetwater County, Wyoming, United States, 82901",-109.2029043,41.5874644,-109.2914701,-109.032063,41.5595089,41.647582,8013
"USA. Texas. Tarrant County. Mostly from creek bed of tributaries to Clear Fork of Trinity River, 7 mi SW of Benbrook.","Trinity River Trail, River District, Fort Worth, Tarrant County, Texas, United States, 76114",-97.4013435,32.7613239,-97.40281863,-97.40012067,32.75978942,32.76248738,173
USA. Texas. Tarrant County. Benbrook.,"Benbrook, Tarrant County, Texas, United States",-97.4605759,32.673188,-97.5039981,-97.411845,32.6458199,32.723728,5080
"USA, South Dakota, Butte County, 4 miles west of US Route 85 and 11 miles north-northwest of Belle Fourche.","U.S. 85, Butte County, South Dakota, United States",-103.7006238,44.9065196,-103.862742,-103.5486232,44.5739812,45.2127247,36074
"USA. South Dakota. Dewey County. Moreau River. Float concentrations on spur where slump, southwest-facing exposures on ridge extending northwest from bluffs, about 0.5 miles west of location C0089, and 2.5 miles west-southwest of Green Grass.","Moreau River, South Dakota, United States",-101.7472359,45.23776582,-102.8710585,-100.6234133,45.1081969,45.3673348,89310
"USA. Oklahoma. Noble County. Tonkawa. Well core from Tonkawa Oil Field, about 7 mi SSE of Tonkawa.","Tonkawa Oil Field, Kay County, Oklahoma, United States, 74653",-97.3444899,36.6200353,-97.34583888,-97.34314092,36.61868632,36.62138428,192
"USA, Oklahoma, Noble County, Tonkawa, well core from Tonkawa Oil Field, about 7 miles SSE of Tonkawa.","Tonkawa Oil Field, Kay County, Oklahoma, United States, 74653",-97.3444899,36.6200353,-97.34583888,-97.34314092,36.61868632,36.62138428,192
"USA. Wyoming. Weston County. 5 mi west of Upton, Newcastle area.","Upton, Weston County, Wyoming, United States, 82730",-104.6280156,44.0997037,-104.6706149,-104.6077461,44.085937,44.118876,2678
USA. Wyoming. Weston County. Newcastle area. Station 1.,"1st Street, Upton, Weston County, Wyoming, United States, 82730",-104.62922,44.0991937,-104.6344959,-104.6239386,44.0956726,44.1026492,571
"USA, Wyoming, Niobrara County, Lance Creek.","Lance Creek, Niobrara County, Wyoming, United States",-104.6419032,43.0324679,-104.7758499,-104.567895,42.99125,43.094254,9136
"USA. Montana. Toole County, about 6 mi W of US Rt 15, and 5 mi NNW of Kevin.","Toole County, Montana, United States",-111.6408212,48.6974247,-112.1934089,-111.2698639,48.219334,48.9986821,43170
"USA, South Dakota, Corson County, north end of bluff face, east-facing bluff of sharp ridge on west bank of Grand River, 2.5 miles south of Bullhead.","Corson County, South Dakota, United States",-101.690976,45.7623333,-102.0009831,-100.308178,45.4722121,45.944845,40304
"USA, South Dakota, Butte County, N end of Orman Dam, E side of Belle Fourche Reservoir, 3.5 mi N of US Rt 212, 7 mi NE of Belle Fourche.","Belle Fourche Dam, Belle Fourche, West Butte, Butte County, South Dakota, United States, 57717",-103.6774189,44.731096,-103.6781677,-103.6754698,44.72948272,44.73218068,189
USA. Texas. Pecos County. Dimple Hills.,"Dimple Hills, Pecos County, Texas, United States, 79735",-102.9398798,30.3365622,-102.9412288,-102.9385308,30.33521322,30.33791118,198
"USA, Montana, Fergus County, Crooked Creek, 18 miles southwest of Carroll.","Fergus County, Montana, United States",-109.4141,47.2126745,-110.2135959,-108.313034,46.6934681,47.8034239,83877
"USA, South Dakota, Ziebach County, Moreau River, grass-covered bluffs on east and southeast side of SD Route 65, and on east and west sides of draw, 1 mile north of Moreau River.","Moreau River, South Dakota, United States",-101.7472359,45.23776582,-102.8710585,-100.6234133,45.1081969,45.3673348,89310
"USA, Colorado","Colorado, United States",-105.7820674,39.5500507,-109.060204,-102.041522,36.992449,41.0034439,356675
"USA, Kansas, Smoky Hill River.","Smoky Hill River, United States",-99.70692826,38.77087352,-102.6216211,-96.7922355,38.4810115,39.0607356,254817
"USA. South Dakota. Corson County. Road cut on SE side of road between SD Rt. 65 and Bullhead, 2.2 mi E of SD Rt. 65, 0.1 mi W of White Shirt Creek, 11.3 mi W of Bullhead.","White Shirt Creek, West Corson, Corson County, South Dakota, United States, 57641",-101.2660361,45.7598694,-101.2860823,-101.2459899,45.7391047,45.7806341,2785
USA. Pierre Sh.,"Pierre, Hughes County, South Dakota, United States, 57501",-100.3537522,44.3667876,-100.371866,-100.269211,44.3412171,44.400319,3187
"USA, South Dakota, Ziebach County, road cut and adjacent outcrops along the west side of SD Route 63, from High Elk Hill to a point 0.5 miles north, and between 5.5 and 6 miles south of the intersection with US Route 212, High Elk Hill, 6 miles south-southwest of Eagle Butte village.","U.S. Highway 212, United States",-101.8206773,45.0525361,-110.4249856,-93.3792057,44.6509014,45.8377556,665829
"USA. South Dakota. Corson County. Kenel. Outcrops on N side of triangulation mark Windy Knob, 7.5 mi SSE of Kenel.","Kenel, East Corson, Corson County, South Dakota, United States",-100.4598519,45.8583301,-100.469528,-100.448862,45.8473139,45.8627301,984
"USA. South Dakota. Corson County. Grand River. 2.5 mi WSW of Rattlesnake Butte, and 5.6 mi WSW of Wakpala.","Grand River, East Corson, Corson County, South Dakota, United States, 57601",-100.471525,45.5769395,-100.472874,-100.470176,45.57559052,45.57828848,183
"USA. South Dakota. Corson County. Southwest-facing bluffs at the west end of the divide, west of the trail, about 1 mile east of the Grand River, and 6 miles southeast of Bullhead.","Corson County, South Dakota, United States",-101.690976,45.7623333,-102.0009831,-100.308178,45.4722121,45.944845,40304
"USA. South Dakota. Corson County. Grand River. Big Gervillia concentration, section A, lot 2, exposure at toe at west end of spur, east side of east tributary of Little Oak Creek, 4 miles south-southwest of Little Eagle.","Grand River, East Corson, Corson County, South Dakota, United States, 57601",-100.471525,45.5769395,-100.472874,-100.470176,45.57559052,45.57828848,183
Canada. Quebec. Anticosti Island. Ellis Bay. 306358,"Anticosti Island, Minganie Regional County Municipality, Côte-Nord, Quebec, Canada, G0G",-62.9555318,49.5495194,-64.5239119,-61.6694982,49.0625037,49.9521358,102929
"Canada. Quebec. Cliffs of Gun River, Anticosti Island.","Anticosti Island, Minganie Regional County Municipality, Côte-Nord, Quebec, Canada, G0G",-62.9555318,49.5495194,-64.5239119,-61.6694982,49.0625037,49.9521358,102929
Canada. Quebec. Anticosti Island. Cliff 0.5 mi E of Junction Cliff. 3019306334,"Anticosti Island, Minganie Regional County Municipality, Côte-Nord, Quebec, Canada, G0G",-62.9555318,49.5495194,-64.5239119,-61.6694982,49.0625037,49.9521358,102929
"Canada. Quebec. West Jupiter Cliff, Anticosti Island. 3063117","Anticosti Island, Minganie Regional County Municipality, Côte-Nord, Quebec, Canada, G0G",-62.9555318,49.5495194,-64.5239119,-61.6694982,49.0625037,49.9521358,102929
"China, Gansu Province, Wu-We-Hsien, Pan-Chia-Ta-Ban, 45 km south of Wu-We-Hsien.","Gansu, China",103.82634,36.0594199,92.32228,108.7155399,32.5941099,42.794556,857733
"USA. Texas. Brewster County. Glass Mountains. Section 14, just east of Clay Slide and west of Iron Mountain in Glass Mountains.","Glass Mountains, Pecos County, Texas, United States, 79735",-103.1090536,30.4354441,-103.1104026,-103.1077046,30.43409512,30.43679308,198
"USA, Texas, Culberson County, Sierra Diablo, 1.3 miles south of benchmark 6140.","Sierra Diablo, Culberson County, Texas, United States, 79855",-104.9049435,31.4229024,-104.9062925,-104.9035945,31.42155342,31.42425138,197
"USA. Texas. Brewster County. Glass Mountains. Section 14, above Clay slide. West Texas.","Glass Mountains, Pecos County, Texas, United States, 79735",-103.1090536,30.4354441,-103.1104026,-103.1077046,30.43409512,30.43679308,198
"USA, Texas, Presidio County, second main NW of Shafter Mine, Chinati Mountains, west TX.","Shafter Mine, Presidio County, Texas, United States, 79843",-104.3232535,29.8173955,-104.3246025,-104.3219045,29.81604652,29.81874448,198
"USA. Texas. Culberson County. Section in Delaware Mountains north of Van Horn quadrangle, Sierra Diablo, west Texas.","Delaware Mountains, Culberson County, Texas, United States",-104.6004914,31.5001265,-104.6018404,-104.5991424,31.49877752,31.50147548,197
"USA, Texas, Brewster County, Glass Mountains, Leonard Mountain.","Glass Mountains, Pecos County, Texas, United States, 79735",-103.1090536,30.4354441,-103.1104026,-103.1077046,30.43409512,30.43679308,198
"USA. Texas. Brewster County. 1.1 mi SW of Word Ranch house, Glass Mountains.","Glass Mountains, Pecos County, Texas, United States, 79735",-103.1090536,30.4354441,-103.1104026,-103.1077046,30.43409512,30.43679308,198
"USA. Texas. Brewster County. On escarpment west of Hess Canyon fault, Glass Mountains.","Glass Mountains, Pecos County, Texas, United States, 79735",-103.1090536,30.4354441,-103.1104026,-103.1077046,30.43409512,30.43679308,198
"USA. Texas. Brewster County. 0.6 mi E of hill 4910, E of Clay slide, Glass Mountains, west TX.","Glass Mountains, Pecos County, Texas, United States, 79735",-103.1090536,30.4354441,-103.1104026,-103.1077046,30.43409512,30.43679308,198
"USA. Texas. Culberson County. Northeast of summit 6345, southwest of Victorio Peak, Sierra Diablo, west Texas.","Sierra Diablo, Culberson County, Texas, United States, 79855",-104.9049435,31.4229024,-104.9062925,-104.9035945,31.42155342,31.42425138,197
"USA, Texas, Brewster County, 0.2 to 0.3 mi NE of Split Tank, 1.5 mi NE of Word Ranch house also about 1 mi ENE of Split Tank in the Glass Mountains, west Texas.","Split Tank, Hudspeth County, Texas, United States",-105.2754834,30.999048,-105.2768811,-105.2741831,30.99767947,31.00037743,193
"USA. Texas. Presidio County. Northwest of Shafter Mine, Chinati Mountains, west TX. 3892516","Chinati Mountains, Presidio County, Texas, United States, 79843",-104.4638067,29.9048918,-104.4651557,-104.4624577,29.90354282,29.90624078,198
"USA. Texas. Hudspeth County. 11.5 mi S of Dos Alamos, Sierra Diablo, west TX. 3892493","Sierra Diablo, Culberson County, Texas, United States, 79855",-104.9049435,31.4229024,-104.9062925,-104.9035945,31.42155342,31.42425138,197
"USA. Texas. Hudspeth County, SW of Neville Mt, Hueco Mountains, west TX. 3892428","Hueco Mountains, El Paso County, Texas, United States, 79938",-106.0185875,31.9531621,-106.0199365,-106.0172385,31.95181312,31.95451108,197
"USA. Texas. El Paso County. 2 mi SSW of SE corner of Cerro Alto, Hueco Mountains, west TX.","Cerro Alto, El Paso County, Texas, United States, 79938",-106.063609,31.857273,-106.0647239,-106.062026,31.855705,31.8588155,203
"USA. Texas. Hudspeth County. 2 mi due E of benchmark 4984, 2 mi NE of summit of Rancheria Mt.","Hudspeth County, Texas, United States",-105.5943388,31.5707433,-105.9980067,-104.9071221,30.6291266,32.0023501,80788
USA. Texas. Hudspeth County. Hueco Mountains. NW Cerro Alto quadrangle.,"Cerro Alto, El Paso County, Texas, United States, 79938",-106.063609,31.857273,-106.0647239,-106.062026,31.855705,31.8588155,203
"USA. Texas. Brewster County. Section 14, west of Iron Mountain, Glass Mountains.","Glass Mountains, Pecos County, Texas, United States, 79735",-103.1090536,30.4354441,-103.1104026,-103.1077046,30.43409512,30.43679308,198
"USA, Texas, Brewster County, 0.5 mi NE of Hill 5305, Hess Ranch horst, Glass Mountains, West TX.","Glass Mountains, Pecos County, Texas, United States, 79735",-103.1090536,30.4354441,-103.1104026,-103.1077046,30.43409512,30.43679308,198
"USA. Texas. Culberson County, 0.5 mi SE of diabase hill 5039, Sierra Diablo.","Sierra Diablo, Culberson County, Texas, United States, 79855",-104.9049435,31.4229024,-104.9062925,-104.9035945,31.42155342,31.42425138,197
"USA, Texas, Presidio County, north of Shafter silver mine, Chinati Mountains.","Chinati Mountains, Presidio County, Texas, United States, 79843",-104.4638067,29.9048918,-104.4651557,-104.4624577,29.90354282,29.90624078,198
"USA. Texas. Brewster County. 1 mi NW of Wolfcamp, Section 23, Glass Mountains, west TX. 389287","Glass Mountains, Pecos County, Texas, United States, 79735",-103.1090536,30.4354441,-103.1104026,-103.1077046,30.43409512,30.43679308,198
"USA. Texas. Brewster County, Section 24, NE of Wolf Camp, Glass Mountains, west TX.","Glass Mountains, Pecos County, Texas, United States, 79735",-103.1090536,30.4354441,-103.1104026,-103.1077046,30.43409512,30.43679308,198
"USA. Texas. Brewster County. 1 mi NW of Wolfcamp, Section 23, Glass Mountains, west TX. 389287B","Glass Mountains, Pecos County, Texas, United States, 79735",-103.1090536,30.4354441,-103.1104026,-103.1077046,30.43409512,30.43679308,198
"USA, Texas, Brewster County, about 0.5 mi W of B3119, below hill 4815, and NW of Wolf Camp, Glass Mountains.","Glass Mountains, Pecos County, Texas, United States, 79735",-103.1090536,30.4354441,-103.1104026,-103.1077046,30.43409512,30.43679308,198
"USA. Texas. Brewster County. Section 24, 12 mi. N 35 mi. E from Marathon, TX, Glass Mountains. 389288","Glass Mountains, Pecos County, Texas, United States, 79735",-103.1090536,30.4354441,-103.1104026,-103.1077046,30.43409512,30.43679308,198
"USA, Texas, Brewster County, Section 24, Glass Mountains, west TX. 389291","Glass Mountains, Pecos County, Texas, United States, 79735",-103.1090536,30.4354441,-103.1104026,-103.1077046,30.43409512,30.43679308,198
"USA. Texas. Brewster County, about 0.5 mi W of B3119, below hill 4815, NW of Wolf Camp, Glass Mountains, west TX.","Glass Mountains, Pecos County, Texas, United States, 79735",-103.1090536,30.4354441,-103.1104026,-103.1077046,30.43409512,30.43679308,198
"USA. Texas. Brewster County. Glass Mountains. Section 12, west TX.  389221","Glass Mountains, Pecos County, Texas, United States, 79735",-103.1090536,30.4354441,-103.1104026,-103.1077046,30.43409512,30.43679308,198
"USA. Texas. Brewster County. Glass Mountains. 0.6 mi N of hill 5021, 2 mi WSW of Iron Mountain, west TX.","Glass Mountains, Pecos County, Texas, United States, 79735",-103.1090536,30.4354441,-103.1104026,-103.1077046,30.43409512,30.43679308,198
"USA, Texas, Brewster County, 0.5 mi NE of elevation mark 4869, NNW of Iron Mountain, Glass Mountains, West Texas.","Glass Mountains, Pecos County, Texas, United States, 79735",-103.1090536,30.4354441,-103.1104026,-103.1077046,30.43409512,30.43679308,198
"USA. Texas. Brewster County. Section 15, tank west of north end of Iron Mountain, Glass Mountains.","Glass Mountains, Pecos County, Texas, United States, 79735",-103.1090536,30.4354441,-103.1104026,-103.1077046,30.43409512,30.43679308,198
"USA. Texas. Brewster County. Glass Mountains. Near top of Hess, Section 17.","Glass Mountains, Pecos County, Texas, United States, 79735",-103.1090536,30.4354441,-103.1104026,-103.1077046,30.43409512,30.43679308,198
"USA, Texas, Hudspeth County, Sierra Diablo, Victorio Peak section.","Sierra Diablo, Culberson County, Texas, United States, 79855",-104.9049435,31.4229024,-104.9062925,-104.9035945,31.42155342,31.42425138,197
USA. Texas. Brewster County. Glass Mountains. Below and to west of Clay slide.,"Glass Mountains, Pecos County, Texas, United States, 79735",-103.1090536,30.4354441,-103.1104026,-103.1077046,30.43409512,30.43679308,198
"USA, Texas, Brewster County, Glass Mountains, 2 miles west of Iron Mountain.","Glass Mountains, Pecos County, Texas, United States, 79735",-103.1090536,30.4354441,-103.1104026,-103.1077046,30.43409512,30.43679308,198
"USA. Texas. Pecos County. Section 27, 0.25 mi E of hill 5157, in arroyo, Glass Mountains, west TX. 3892174","Glass Mountains, Pecos County, Texas, United States, 79735",-103.1090536,30.4354441,-103.1104026,-103.1077046,30.43409512,30.43679308,198
"USA. Texas. Brewster County, E side of Hess Canyon, near its angle, Glass Mountains.","Hess Canyon, Brewster County, Texas, United States, 79842",-103.2071162,30.3337771,-103.2084652,-103.2057672,30.33242812,30.33512608,198
"USA. Texas. Brewster County. North side of Hess Canyon, east of hill 5543, Glass Mountains.","Hess Canyon, Brewster County, Texas, United States, 79831",-103.2004472,30.4473858,-103.2017962,-103.1990982,30.44603682,30.44873478,198
"USA, Texas, Brewster County, on top of ridge, 2.1 mi E of Esterwood Ranch, Glass Mountains, west TX.","Glass Mountains, Pecos County, Texas, United States, 79735",-103.1090536,30.4354441,-103.1104026,-103.1077046,30.43409512,30.43679308,198
"USA. Texas. Hudspeth County. sh just below ammonoid bed, Fossil Hill, NW Finlay Dome, N of Finlay, Finlay Mountains, west TX.  3892512  , Hudspeth County","Finlay Mountains, Hudspeth County, Texas, United States, 79851",-105.5874606,31.3556794,-105.5888096,-105.5861116,31.35433042,31.35702838,197
"USA. Texas. Brewster County, 0.5 mi SW of hill 5816, Hess Ranch horst, Glass Mountains.","Glass Mountains, Pecos County, Texas, United States, 79735",-103.10905,30.4354441,-103.1104,-103.1077,30.4340951,30.4367931,198
"USA, Texas, El Paso County, summit of highest hill in Hueco Mountains, west of Hueco Tanks.","Hueco Mountains, El Paso County, Texas, United States, 79938",-106.0185875,31.9531621,-106.0199365,-106.0172385,31.95181312,31.95451108,197
"USA. Texas. Brewster County. Hess Ranch horst, 0.75 mi NE of hill 5305, Glass Mountains.","Glass Mountains, Pecos County, Texas, United States, 79735",-103.1090536,30.4354441,-103.1104026,-103.1077046,30.43409512,30.43679308,198
"USA. Texas. Brewster County. 0.8 mi NW of hill 5079, NW Hess Canyon quadrangle, Glass Mountains, west Texas. 3892265","Hess Canyon, Brewster County, Texas, United States, 79842",-103.2071162,30.3337771,-103.2084652,-103.2057672,30.33242812,30.33512608,198
"USA. Texas. Brewster County. NW of Iron Mountain, Glass Mountains. 3892081","Glass Mountains, Pecos County, Texas, United States, 79735",-103.1090536,30.4354441,-103.1104026,-103.1077046,30.43409512,30.43679308,198
"USA, Texas, Brewster County, Section 24, Wolf Camp, Glass Mountains.","Glass Mountains, Pecos County, Texas, United States, 79735",-103.1090536,30.4354441,-103.1104026,-103.1077046,30.43409512,30.43679308,198
"USA. Texas. Brewster County. East side of Hess Canyon, near northernmost outcrop, Glass Mountains, West Texas.","Hess Canyon, Brewster County, Texas, United States, 79842",-103.2071162,30.3337771,-103.2084652,-103.2057672,30.33242812,30.33512608,198
"USA. Texas. Culberson County. 1.5 mi E of B.m. 6140, Sierra Diablo, south of Victorio Peak, west TX.","Sierra Diablo, Culberson County, Texas, United States, 79855",-104.9049435,31.4229024,-104.9062925,-104.9035945,31.42155342,31.42425138,197
"USA. Texas. Brewster County. 0.5 mi NNW of hill 6311, N of Cathedral Mt, Glass Mountains, west TX.","Cathedral Mountain, Brewster County, Texas, United States, 79831",-103.3465674,30.3096059,-103.3479164,-103.3452184,30.30825692,30.31095488,198
"USA, Texas, Brewster County, 1 mile west of the summit of Iron Mountain, Glass Mountains.","Glass Mountains, Pecos County, Texas, United States, 79735",-103.10905,30.4354441,-103.1104,-103.1077,30.4340951,30.4367931,198
"USA. Texas. Brewster County. Section 12, south of Sullivan Peak, Glass Mountains, west TX.  389244","Glass Mountains, Pecos County, Texas, United States, 79735",-103.1090536,30.4354441,-103.1104026,-103.1077046,30.43409512,30.43679308,198
"USA, Texas, Brewster County, Section 23, east of Hess Ranch horst, Glass Mountains.","Glass Mountains, Pecos County, Texas, United States, 79735",-103.10905,30.4354441,-103.1104,-103.1077,30.4340951,30.4367931,198
"USA. Texas. Brewster County. Glass Mountains, hill 5305, west TX.","Glass Mountains, Pecos County, Texas, United States, 79735",-103.10905,30.4354441,-103.1104,-103.1077,30.4340951,30.4367931,198
"USA, Texas, Brewster County, west end of the Hess Ranch horst, 0.5 miles northeast of hill 5305, Glass Mountains.","Glass Mountains, Pecos County, Texas, United States, 79735",-103.10905,30.4354441,-103.1104,-103.1077,30.4340951,30.4367931,198
"USA, Texas, Brewster County, Glass Mountains, northeast of Clay Slide.","Glass Mountains, Pecos County, Texas, United States, 79735",-103.10905,30.4354441,-103.1104,-103.1077,30.4340951,30.4367931,198
"USA. Texas. Culberson County. Delaware Mts N of Van Horn quadrangle, Sierra Diablo, west TX.","Delaware Mountains, Culberson County, Texas, United States",-104.6004914,31.5001265,-104.6018404,-104.5991424,31.49877752,31.50147548,197
"USA. Texas. Culberson County, 1 mi SE of b.m. 5560, Baylor Mts, Sierra Diablo, west TX.","Baylor Mountains, Culberson County, Texas, United States",-104.7643832,31.2429071,-104.7657322,-104.7630342,31.24155812,31.24425608,197
"USA, Texas, Brewster County, 0.75 mi WNW of the summit of Iron Mountain, Glass Mountains.","Glass Mountains, Pecos County, Texas, United States, 79735",-103.10905,30.4354441,-103.1104,-103.1077,30.4340951,30.4367931,198
"USA. Texas. Brewster County. Glass Mountains. Section 14, west TX. 389214","Glass Mountains, Pecos County, Texas, United States, 79735",-103.10905,30.4354441,-103.1104,-103.1077,30.4340951,30.4367931,198
"USA, Texas, Brewster County, central part of Dugout Mountain, Glass Mountains.","Dugout Mountain, Brewster County, Texas, United States",-103.4087932,30.2087732,-103.4101422,-103.4074442,30.20742422,30.21012218,198
"USA. Texas. Brewster County. South side of Road Canyon, west of the divide separating the drainage of Gilliland and Hess Canyons, Glass Mountains.","Glass Mountains, Pecos County, Texas, United States, 79735",-103.10905,30.4354441,-103.1104,-103.1077,30.4340951,30.4367931,198
"USA, Texas, Hudspeth County, 2 miles northwest of hill 5700, near the west border of Cerro Alto quadrangle, Hueco Mountains.","Hueco Mountains, El Paso County, Texas, United States, 79938",-106.0185875,31.9531621,-106.0199365,-106.0172385,31.95181312,31.95451108,197
"USA. Texas. Brewster County. Projecting spur of range just west of the Marathon-Sullivan road, middle part, Glass Mountains. 389217B","Glass Mountains, Pecos County, Texas, United States, 79735",-103.1090536,30.4354441,-103.1104026,-103.1077046,30.43409512,30.43679308,198
"USA, Texas, Pecos County, Glass Mountains, 0.8 mi west of the east end of Hess Canyon quadrangle.","Hess Canyon, Brewster County, Texas, United States, 79831",-103.2004472,30.4473858,-103.2017962,-103.1990982,30.44603682,30.44873478,198
"USA, Texas, Brewster County, Section 24, Glass Mountains, west TX.","Glass Mountains, Pecos County, Texas, United States, 79735",-103.10905,30.4354441,-103.1104,-103.1077,30.4340951,30.4367931,198
"USA, Texas, Brewster County, Glass Mountains, west TX.","Glass Mountains, Pecos County, Texas, United States, 79735",-103.10905,30.4354441,-103.1104,-103.1077,30.4340951,30.4367931,198
"Mexico, Coahuila State, between Cerro Caballo and El Tordillo.","Coahuila, Mexico",-101.7068294,27.058676,-103.9600019,-99.8428843,24.542684,29.8800586,358799
"Mexico. Coahuila State. Noria, west of the Noria.","Noria, Coahuila de Zaragoza, Mexico, 26626",-100.9000001,27.9499999,-100.9013491,-100.8986511,27.94865092,27.95134888,200
"USA. Texas. Brewster County, 0.25 mi E of hill 5300, Glass Mountains, west TX.","Glass Mountains, Pecos County, Texas, United States, 79735",-103.10905,30.4354441,-103.1104,-103.1077,30.4340951,30.4367931,198
"USA. Texas. Brewster County. Hill south of forks of Hess Canyon, south of road to Word Ranch, Glass Mountains, west Texas.","Hess Canyon, Brewster County, Texas, United States, 79842",-103.2071162,30.3337771,-103.2084652,-103.2057672,30.33242812,30.33512608,198
"USA. Texas. Brewster County. NE of Hess Ranch, on N side of the escarpment, 1.2 mi W of hill 5725, Glass Mountains, west TX.","Glass Mountains, Pecos County, Texas, United States, 79735",-103.10905,30.4354441,-103.1104,-103.1077,30.4340951,30.4367931,198
"USA, Texas, Culberson County, section on Baylor Mountains, Sierra Diablo, west Texas.","Baylor Mountains, Culberson County, Texas, United States",-104.7643832,31.2429071,-104.7657322,-104.7630342,31.24155812,31.24425608,197
"USA. Texas. Culberson County. Section on Baylor Mountains, Sierra Diablo, West Texas.","Baylor Mountains, Culberson County, Texas, United States",-104.7643832,31.2429071,-104.7657322,-104.7630342,31.24155812,31.24425608,197
"USA. Texas. Brewster County. 0.9 mi ENE of hill 4902, at base of escarpment of Lenox Hills, Glass Mountains, west TX.","Glass Mountains, Pecos County, Texas, United States, 79735",-103.1090536,30.4354441,-103.1104026,-103.1077046,30.43409512,30.43679308,198
"USA. Texas. Brewster County, near Word Ranch house, Glass Mountains, west TX. 3892126","Glass Mountains, Pecos County, Texas, United States, 79735",-103.1090536,30.4354441,-103.1104026,-103.1077046,30.43409512,30.43679308,198
"USA. Texas. Brewster County. Section 24, Glass Mountains, west TX. 389290","Glass Mountains, Pecos County, Texas, United States, 79735",-103.10905,30.4354441,-103.1104,-103.1077,30.4340951,30.4367931,198
"USA, Texas, Brewster County, Section 24, Glass Mountains, west Texas.","Glass Mountains, Pecos County, Texas, United States, 79735",-103.10905,30.4354441,-103.1104,-103.1077,30.4340951,30.4367931,198
"USA, Texas, Brewster County, Glass Mountains, west of Leonard Mountain, southeast of hill 5453.","Glass Mountains, Pecos County, Texas, United States, 79735",-103.10905,30.4354441,-103.1104,-103.1077,30.4340951,30.4367931,198
"USA. Texas. Culberson County. 1.5 mi E of B.m. 6140, Sierra Diablo, south of Victorio Peak, West Texas.","Sierra Diablo, Culberson County, Texas, United States, 79855",-104.9049435,31.4229024,-104.9062925,-104.9035945,31.42155342,31.42425138,197
"USA, Texas, Brewster County, Glass Mountains, Hess Ranch horst.","Glass Mountains, Pecos County, Texas, United States, 79735",-103.10905,30.4354441,-103.1104,-103.1077,30.4340951,30.4367931,198
"USA. Texas. Brewster County. Glass Mountains. Section 17, richly fossiliferous horizon.","Glass Mountains, Pecos County, Texas, United States, 79735",-103.1090536,30.4354441,-103.1104026,-103.1077046,30.43409512,30.43679308,198
"USA, Texas, Culberson County, south side of entrance to Victorio Canyon, Sierra Diablo.","Victorio Canyon, Culberson County, Texas, United States, 79855",-104.8632755,31.3504045,-104.8646245,-104.8619265,31.34905552,31.35175348,197
"USA. Texas. Brewster County. Section 24, on the side of the arroyo NE of Wolf Camp, Glass Mountains.","Glass Mountains, Pecos County, Texas, United States, 79735",-103.10905,30.4354441,-103.1104,-103.1077,30.4340951,30.4367931,198
"USA, Texas, Brewster County, Glass Mountains, NE of locality B3111.","Glass Mountains, Pecos County, Texas, United States, 79735",-103.1090536,30.4354441,-103.1104026,-103.1077046,30.43409512,30.43679308,198
"USA. Texas. Brewster County, near base of hill, 0.3 mi SW of hill 4815, 4 mi NE of Wolf Camp, Glass Mountains, west TX.","Glass Mountains, Pecos County, Texas, United States, 79735",-103.10905,30.4354441,-103.1104,-103.1077,30.4340951,30.4367931,198
"USA. Texas. Pecos County. Glass Mountains. East edge of Hess Canyon quadrangle, west Texas.","Glass Mountains, Pecos County, Texas, United States, 79735",-103.1090536,30.4354441,-103.1104026,-103.1077046,30.43409512,30.43679308,198
"USA. Texas. Brewster County. Small hill 1 mi NW of the summit of Iron Mt, Glass Mountains, west TX. 38921","Glass Mountains, Pecos County, Texas, United States, 79735",-103.1090536,30.4354441,-103.1104026,-103.1077046,30.43409512,30.43679308,198
"USA. Texas. El Paso County, 1.2 mi SSW of hill 5345, Hueco Mountains, west TX.","Hueco Mountains, El Paso County, Texas, United States, 79938",-106.0185875,31.9531621,-106.0199365,-106.0172385,31.95181312,31.95451108,197
"USA. Texas. Culberson County. South of Victorio Peak, Sierra Diablo, west TX.","Sierra Diablo, Culberson County, Texas, United States, 79855",-104.9049435,31.4229024,-104.9062925,-104.9035945,31.42155342,31.42425138,197
"USA, Texas, Brewster County, Glass Mountains, Section 12, 0.25 mi S of locality B3074, 0.2 mi E of locality B3075.","Glass House Mountains, Sunshine Coast Region, Queensland, Australia",152.9592759,-26.8979554,152.8462074,153.0082846,-26.9388029,-26.8668041,5969
USA. Texas. Brewster County. Western Glass Mountains.,"Glass Mountains, Pecos County, Texas, United States, 79735",-103.1090536,30.4354441,-103.1104026,-103.1077046,30.43409512,30.43679308,198
"USA, Texas, Pecos County, 2 mi S of Gap Tank","Gap Tank, Pecos County, Texas, United States, 79848",-102.6482061,30.2135149,-102.6495551,-102.6468571,30.21216592,30.21486388,198
USA. Texas.,"Texas, United States",-99.9018131,31.9685988,-106.6456461,-93.5080389,25.8371165,36.5011261,774098
"USA, Texas, Brewster County, north of junction of Road and Gilliland Canyons, Glass Mountains.","Glass Mountains, Pecos County, Texas, United States, 79735",-103.1090536,30.4354441,-103.1104026,-103.1077046,30.43409512,30.43679308,198
"USA. Texas. Brewster County, western Glass Mountains.","Glass Mountains, Pecos County, Texas, United States, 79735",-103.1090536,30.4354441,-103.1104026,-103.1077046,30.43409512,30.43679308,198
"USA, Texas, Brewster County, 1.5 mi SW of Sullivan Peak, Glass Mountains.","Glass Mountains, Pecos County, Texas, United States, 79735",-103.1090536,30.4354441,-103.1104026,-103.1077046,30.43409512,30.43679308,198
"USA, Texas, Culberson County, section south of Victorio Peak, Sierra Diablo, west Texas.","Sierra Diablo, Culberson County, Texas, United States, 79855",-104.9049435,31.4229024,-104.9062925,-104.9035945,31.42155342,31.42425138,197
"USA. Texas. Brewster County. Glass Mountains. Section 15, west TX. 389216","Glass Mountains, Pecos County, Texas, United States, 79735",-103.1090536,30.4354441,-103.1104026,-103.1077046,30.43409512,30.43679308,198
"USA. Texas. Brewster County. Glass Mountains. 0.5 mi S of tank at elevation mark 4555, west TX.","Glass Mountains, Pecos County, Texas, United States, 79735",-103.1090536,30.4354441,-103.1104026,-103.1077046,30.43409512,30.43679308,198
"USA. Texas. Brewster County. Projecting spur of range just west of the Marathon-Sullivan road, Glass Mountains, west Texas. 389217A","Glass Mountains, Pecos County, Texas, United States, 79735",-103.10905,30.4354441,-103.1104,-103.1077,30.4340951,30.4367931,198
"USA, Texas, Brewster County, Glass Mountains, Section 14.","Glass Mountains, Pecos County, Texas, United States, 79735",-103.1090536,30.4354441,-103.1104026,-103.1077046,30.43409512,30.43679308,198
"USA, Texas, Brewster County, Glass Mountains, Section 15, 1 mi W of Iron Mountain.","Glass Mountains, Pecos County, Texas, United States, 79735",-103.1090536,30.4354441,-103.1104026,-103.1077046,30.43409512,30.43679308,198
"USA, Texas, Hudspeth County, Sierra Diablo, 0.5 mi west of the east edge of Salt Basin quadrangle.","Salt Basin, Hudspeth County, Texas, United States, 79847",-105.0849521,31.8959473,-105.0863011,-105.0836031,31.89459832,31.89729628,197
"USA. Texas. Culberson County. 1 mi NE of summit 6630, S of Apache Peak, Sierra Diablo, west TX.","Sierra Diablo, Culberson County, Texas, United States, 79855",-104.9049435,31.4229024,-104.9062925,-104.9035945,31.42155342,31.42425138,197
"USA. Texas. Brewster County. Glass Mountains, west TX.","Glass Mountains, Pecos County, Texas, United States, 79735",-103.1090536,30.4354441,-103.1104026,-103.1077046,30.43409512,30.43679308,198
"USA, Texas, Brewster County, east of fault at east end of Dugout Mountain, Glass Mountains.","Dugout Mountain, Brewster County, Texas, United States",-103.4087932,30.2087732,-103.4101422,-103.4074442,30.20742422,30.21012218,198
"USA. Texas. Brewster County. Top of Cathedral Mountain, East end, Glass Mountains, West Texas. 389243","Cathedral Mountain, Brewster County, Texas, United States, 79831",-103.3465674,30.3096059,-103.3479164,-103.3452184,30.30825692,30.31095488,198
"USA. Texas. Brewster County, 1.5 mi SW of Sullivan Peak, Cathedral Mountain, Glass Mountains.","Cathedral Mountain, Brewster County, Texas, United States, 79831",-103.3465674,30.3096059,-103.3479164,-103.3452184,30.30825692,30.31095488,198
"USA. Texas. Brewster County, NE of Word Ranch house, Glass Mountains, west TX. 3892148","Glass Mountains, Pecos County, Texas, United States, 79735",-103.10905,30.4354441,-103.1104,-103.1077,30.4340951,30.4367931,198
"USA. Texas. Brewster County. E from hill 5360 to big fault 5 mi NE of Word Ranch, Glass Mountains.","Glass Mountains, Pecos County, Texas, United States, 79735",-103.10905,30.4354441,-103.1104,-103.1077,30.4340951,30.4367931,198
"USA. Texas. Brewster County. East of Word Ranch, Glass Mountains.","Glass Mountains, Pecos County, Texas, United States, 79735",-103.10905,30.4354441,-103.1104,-103.1077,30.4340951,30.4367931,198
"USA. Texas. Brewster County. East end of range north of Leonard Mountain, on the north slope of hill 5453, Glass Mountains, west Texas.","Glass Mountains, Pecos County, Texas, United States, 79735",-103.10905,30.4354441,-103.1104,-103.1077,30.4340951,30.4367931,198
"USA, Texas, Pecos County, 0.5 miles WNW of point 3663, NE of Sierra Madera, Glass Mountains, west Texas.","Sierra Madera crater, Pecos County, Texas, United States",-102.9126567,30.5926639,-102.9140057,-102.9113077,30.59131492,30.59401288,198
"USA, Texas, El Paso County, Juan Peak, Hueco Mountains, west TX.","Hueco Mountains, El Paso County, Texas, United States, 79938",-106.0185875,31.9531621,-106.0199365,-106.0172385,31.95181312,31.95451108,197
"USA. Texas. Hudspeth County. Hess, 1.7 mi S of the summit of Cerro Alto, Hueco Mountains, west TX.","Cerro Alto, El Paso County, Texas, United States, 79938",-106.063609,31.857273,-106.0647239,-106.062026,31.855705,31.8588155,203
"USA. Texas. Brewster County, south of high point on Dugout Mountain, Glass Mountains, west Texas.","Dugout Mountain, Brewster County, Texas, United States",-103.4087932,30.2087732,-103.4101422,-103.4074442,30.20742422,30.21012218,198
"USA. Texas. Hudspeth County. Fossil Hill, Finlay Dome, N of Finlay, Finaly Mountains, west TX.  3892513  , Hudspeth County","Finlay, Hudspeth County, Texas, United States, 79851",-105.629444,31.258611,-105.630793,-105.628095,31.25726202,31.25995998,197
"USA. Texas. Brewster County, south of Sullivan Peak, Glass Mountains.","Glass Mountains, Pecos County, Texas, United States, 79735",-103.10905,30.4354441,-103.1104,-103.1077,30.4340951,30.4367931,198
"USA. Texas. Brewster County. W side of fault on spur N of Leonard Mt, Glass Mountains, west TX.","Glass Mountains, Pecos County, Texas, United States, 79735",-103.10905,30.4354441,-103.1104,-103.1077,30.4340951,30.4367931,198
"USA, Texas, Brewster County, west of Comanche outlier north of Word Ranch, Glass Mountains.","Glass Mountains, Pecos County, Texas, United States, 79735",-103.10905,30.4354441,-103.1104,-103.1077,30.4340951,30.4367931,198
"USA. Texas. Brewster County. 0.5 mi SE of hill 5803, N side of Road Canyon, Glass Mountains, west TX. 3892243","Glass Mountains, Pecos County, Texas, United States, 79735",-103.10905,30.4354441,-103.1104,-103.1077,30.4340951,30.4367931,198
"USA, Texas, Hudspeth County, 6 miles south of Dos Alamos, Sierra Diablo, west Texas.","Sierra Diablo, Culberson County, Texas, United States, 79855",-104.9049435,31.4229024,-104.9062925,-104.9035945,31.42155342,31.42425138,197
"USA. Texas. Brewster County. On scarp east of the head of the east fork of Hess Canyon, about 0.25 miles below and southeast of hill 5767, Glass Mountains, west Texas.","Hess Canyon, Brewster County, Texas, United States, 79842",-103.2071162,30.3337771,-103.2084652,-103.2057672,30.33242812,30.33512608,198
"USA, Texas, near Bone Spring, Guadalupe Mountains, west TX. 3892221",NA,NA,NA,NA,NA,NA,NA,NA
"USA. Texas. Brewster County, Glass Mountains, west TX.","Glass Mountains, Pecos County, Texas, United States, 79735",-103.10905,30.4354441,-103.1104,-103.1077,30.4340951,30.4367931,198
"USA. Texas. Culberson County. Entrance to Victorio Canyon, Sierra Diablo, west TX.","Victorio Canyon, Culberson County, Texas, United States, 79855",-104.8632755,31.3504045,-104.8646245,-104.8619265,31.34905552,31.35175348,197
"USA. Texas. Brewster County. Several miles north of Word Ranch house, Glass Mountains, west TX.","Glass Mountains, Pecos County, Texas, United States, 79735",-103.10905,30.4354441,-103.1104,-103.1077,30.4340951,30.4367931,198
"USA. Texas. Brewster County. Section 23, south side of hill 5611, west side of Hess Canyon, Glass Mountains, west Texas.","Hess Canyon, Brewster County, Texas, United States, 79842",-103.2071162,30.3337771,-103.2084652,-103.2057672,30.33242812,30.33512608,198
"USA, Texas, west of Guadalupe Point, in hills north of the highway from Van Horn to Carlsbad, Guadalupe Mountains.","El Capitan, Culberson County, Texas, United States, 79847",-104.8580032,31.8773383,-104.8593522,-104.8566542,31.87598932,31.87868728,197
"USA. Texas. Brewster County. 0.5 mi N of Hess Ranch, at W end of ridge, Glass Mountains.","Glass Mountains, Pecos County, Texas, United States, 79735",-103.10905,30.4354441,-103.1104,-103.1077,30.4340951,30.4367931,198
"USA. Texas. Hudspeth County. cgl bed, Finlay Dome, S of Fossil Hill, N of Finlay, Finlay Mountains, west TX.  3892511  , Hudspeth County","Finlay Mountains, Hudspeth County, Texas, United States, 79851",-105.5874606,31.3556794,-105.5888096,-105.5861116,31.35433042,31.35702838,197
"USA. Texas. Brewster County. Section 12, south of Sullivan Peak, Glass Mountains, west TX. 389231","Glass Mountains, Pecos County, Texas, United States, 79735",-103.10905,30.4354441,-103.1104,-103.1077,30.4340951,30.4367931,198
"USA, Texas, Pecos County, Glass Mountains, Section H.","Glass Mountains, Pecos County, Texas, United States, 79735",-103.1090536,30.4354441,-103.1104026,-103.1077046,30.43409512,30.43679308,198
"USA, Texas, Brewster County, Glass Mountains, Section 14, 2 miles WSW of Iron Mountain, west Texas.","Glass Mountains, Pecos County, Texas, United States, 79735",-103.1090536,30.4354441,-103.1104026,-103.1077046,30.43409512,30.43679308,198
"USA, Texas, Brewster County, Glass Mountains, Section 10.","Glass Mountains, Pecos County, Texas, United States, 79735",-103.1090536,30.4354441,-103.1104026,-103.1077046,30.43409512,30.43679308,198
"USA, Texas, Brewster County, Glass Mountains, about 1 mile west of the Marathon-Sullivan road.","Glass Mountains, Pecos County, Texas, United States, 79735",-103.1090536,30.4354441,-103.1104026,-103.1077046,30.43409512,30.43679308,198
USA. Texas. Brewster County. Glass Mountains. 389233a,"Glass Mountains, Pecos County, Texas, United States, 79735",-103.1090536,30.4354441,-103.1104026,-103.1077046,30.43409512,30.43679308,198
USA. Texas. Brewster County. Glass Mountains. Section 12. Lenox Hills. West Texas. 389219,"Glass Mountains, Pecos County, Texas, United States, 79735",-103.1090536,30.4354441,-103.1104026,-103.1077046,30.43409512,30.43679308,198
"USA. Texas. Brewster County. at base of escarpment between Sullivan-Marathon road and a point .5 mi to W, Glass Mountains, west TX.","Glass Mountains, Pecos County, Texas, United States, 79735",-103.1090536,30.4354441,-103.1104026,-103.1077046,30.43409512,30.43679308,198
"USA. Texas. Brewster County, south of Cathedral Mt, Glass Mountains, west Texas. 389232","Cathedral Mountain, Brewster County, Texas, United States, 79831",-103.3465674,30.3096059,-103.3479164,-103.3452184,30.30825692,30.31095488,198
"USA. Texas. Brewster County. North of Willis Ranch, Glass Mountains.","Glass Mountains, Pecos County, Texas, United States, 79735",-103.1090536,30.4354441,-103.1104026,-103.1077046,30.43409512,30.43679308,198
"USA, Texas, Brewster County, Glass Mountains, near Clay Slide.","Glass Mountains, Pecos County, Texas, United States, 79735",-103.1090536,30.4354441,-103.1104026,-103.1077046,30.43409512,30.43679308,198
"USA. Texas. Brewster County. 1.5 mi NE of Altuda, Glass Mountains, west TX. 389257","Altuda, Brewster County, Texas, United States, 79830",-103.4575,30.301944,-103.458849,-103.456151,30.30059502,30.30329298,198
"USA. Texas. Brewster County. Section 12, either locality B3074, B3075, or B3076, South of Sullivan Peak, Glass Mountains, West Texas.","Glass Mountains, Pecos County, Texas, United States, 79735",-103.1090536,30.4354441,-103.1104026,-103.1077046,30.43409512,30.43679308,198
"USA. Texas. Brewster County. Glass Mountains, west TX. Section 12, SW side of hill 4920.","Glass Mountains, Pecos County, Texas, United States, 79735",-103.1090536,30.4354441,-103.1104026,-103.1077046,30.43409512,30.43679308,198
"USA, Texas, Brewster County, northeast part of Del Notre Range, south of James Ranch, Glass Mountains, west Texas.","Glass Mountains, Pecos County, Texas, United States, 79735",-103.1090536,30.4354441,-103.1104026,-103.1077046,30.43409512,30.43679308,198
"USA, Texas, Pecos County, north of hill 4627, northeast corner of Hess Canyon quadrangle, Glass Mountains, west Texas.","Glass Mountains, Pecos County, Texas, United States, 79735",-103.1090536,30.4354441,-103.1104026,-103.1077046,30.43409512,30.43679308,198
"USA, Texas, Brewster County, north of Word Ranch, east and west of Comanche outlier for a short distance, Glass Mountains.","Glass Mountains, Pecos County, Texas, United States, 79735",-103.10905,30.4354441,-103.1104,-103.1077,30.4340951,30.4367931,198
"USA. Texas. Brewster County, 0.6 mi WSW of hill 5725, NW of Wolf Camp, Glass Mountains, west TX. 3892212","Glass Mountains, Pecos County, Texas, United States, 79735",-103.10905,30.4354441,-103.1104,-103.1077,30.4340951,30.4367931,198
"USA, Texas, Brewster County, 1 mi NW of Wolfcamp, Section 23, Glass Mountains, west TX.","Glass Mountains, Pecos County, Texas, United States, 79735",-103.1090536,30.4354441,-103.1104026,-103.1077046,30.43409512,30.43679308,198
"USA. Texas. Brewster County. 1 mi NW of Wolfcamp, Section 23, Glass Mountains, west TX.","Glass Mountains, Pecos County, Texas, United States, 79735",-103.1090536,30.4354441,-103.1104026,-103.1077046,30.43409512,30.43679308,198
"USA. Texas. El Paso County. Powwow Canyon, Hueco Mountains, west TX.  3892377A","Pow Wow Canyon, Butterfield, El Paso County, Texas, United States, 79938",-106.0936246,31.8322491,-106.0964432,-106.0890023,31.83087657,31.83357453,307
"USA. Texas. Brewster County. On spur north of high point of Leonard Mountain, east side of fault at east end of the mountain, Glass Mountains, west Texas.","Glass Mountains, Pecos County, Texas, United States, 79735",-103.1090536,30.4354441,-103.1104026,-103.1077046,30.43409512,30.43679308,198
"USA. Texas. Hudspeth County. 11.5 mi S of Dos Alamos, Sierra Diablo, west TX. 3892506","Sierra Diablo, Culberson County, Texas, United States, 79855",-104.9049435,31.4229024,-104.9062925,-104.9035945,31.42155342,31.42425138,197
"USA. Texas. Brewster County. Glass Mountains. Near top of a hill in the middle Hess, Section 27.","Glass Mountains, Pecos County, Texas, United States, 79735",-103.1090536,30.4354441,-103.1104026,-103.1077046,30.43409512,30.43679308,198
"USA. Texas. El Paso County, 2 mi SW of the SW corner of Cerro Alto, Hueco Mountains, west TX.","Cerro Alto, El Paso County, Texas, United States, 79938",-106.063609,31.857273,-106.0647239,-106.062026,31.855705,31.8588155,203
"USA. Texas. Hudspeth County. SW foot of Cerro Alto, Hueco Mountains.","Cerro Alto, El Paso County, Texas, United States, 79938",-106.063609,31.857273,-106.0647239,-106.062026,31.855705,31.8588155,203
"USA. Texas. Pecos County. Glass Mountains. Lower part of a hill in the northeast corner of the Hess Canyon quadrangle, west TX.","Glass Mountains, Pecos County, Texas, United States, 79735",-103.1090536,30.4354441,-103.1104026,-103.1077046,30.43409512,30.43679308,198
"USA. Texas. Pecos County. 0.35 mi SE of hill 4108, north-central part of Sierra Madera, Glass Mountains, west TX.","Sierra Madera crater, Pecos County, Texas, United States",-102.9126567,30.5926639,-102.9140057,-102.9113077,30.59131492,30.59401288,198
"USA, Texas, Brewster County, Glass Mountains, near Gap Tank, about 0.25 mi east of the edge of the Hess Canyon quadrangle, west Texas.","Hess Canyon, Brewster County, Texas, United States, 79842",-103.2071162,30.3337771,-103.2084652,-103.2057672,30.33242812,30.33512608,198
"USA. Texas. Brewster County. 5 mi NE of Wolf Camp, SE flank of Glass Mountains.","Glass Mountains, Pecos County, Texas, United States, 79735",-103.1090536,30.4354441,-103.1104026,-103.1077046,30.43409512,30.43679308,198
"USA, Texas, Brewster County, west end of Glass Mountains.","Glass Mountains, Pecos County, Texas, United States, 79735",-103.1090536,30.4354441,-103.1104026,-103.1077046,30.43409512,30.43679308,198
"USA. Texas. Culberson County. El Capitan, Guadalupe Mountains.","El Capitan, Culberson County, Texas, United States, 79847",-104.8580032,31.8773383,-104.8593522,-104.8566542,31.87598932,31.87868728,197
"USA. Texas. Brewster County. East base of Leonard Mountain, Glass Mountains.","Glass Mountains, Pecos County, Texas, United States, 79735",-103.1090536,30.4354441,-103.1104026,-103.1077046,30.43409512,30.43679308,198
"USA. Texas. Brewster County, Section 17, north of Leonard Mountain, Glass Mountains, west Texas. 3892121","Glass Mountains, Pecos County, Texas, United States, 79735",-103.1090536,30.4354441,-103.1104026,-103.1077046,30.43409512,30.43679308,198
"USA, Texas, Brewster County, Glass Mountains. Section 17, west TX.","Glass Mountains, Pecos County, Texas, United States, 79735",-103.1090536,30.4354441,-103.1104026,-103.1077046,30.43409512,30.43679308,198
"USA. Texas. Brewster County, north of Dugout Mountain, Glass Mountains, west Texas.","Dugout Mountain, Brewster County, Texas, United States",-103.4087932,30.2087732,-103.4101422,-103.4074442,30.20742422,30.21012218,198
"USA, Texas, Brewster County, southwest of the southern part of Comanche outlier, north of Word Ranch house, Glass Mountains, west Texas.","Glass Mountains, Pecos County, Texas, United States, 79735",-103.1090536,30.4354441,-103.1104026,-103.1077046,30.43409512,30.43679308,198
"USA. Texas. Brewster County, south side of Cathedral Mountain, Glass Mountains, west Texas.","Cathedral Mountain, Brewster County, Texas, United States, 79831",-103.3465674,30.3096059,-103.3479164,-103.3452184,30.30825692,30.31095488,198
"USA. Texas. Brewster County. South middle part of Hess Ranch horst, west end, 2.5 mi northeast of Hess Ranch, Glass Mountains, west Texas.","Glass Mountains, Pecos County, Texas, United States, 79735",-103.1090536,30.4354441,-103.1104026,-103.1077046,30.43409512,30.43679308,198
"USA. Texas. Hudspeth County. 2 mi S of the summit of Cerro Alto, Hueco Mountains.","Hudspeth County, Texas, United States",-105.5943388,31.5707433,-105.9980067,-104.9071221,30.6291266,32.0023501,80788
"USA. Texas. Brewster County. SW side of hill 4920, Glass Mountains, west TX. 389225","Glass Mountains, Pecos County, Texas, United States, 79735",-103.1090536,30.4354441,-103.1104026,-103.1077046,30.43409512,30.43679308,198
USA. Texas. Brewster County. Glass Mountains.,"Glass Mountains, Pecos County, Texas, United States, 79735",-103.1090536,30.4354441,-103.1104026,-103.1077046,30.43409512,30.43679308,198
"USA. Texas. Presidio County. Near the divide east of Ross Mine, Chinati Mountains, west TX.","Ross Mine, Presidio County, Texas, United States, 79843",-104.3874209,29.8160062,-104.3887699,-104.3860719,29.81465722,29.81735518,198
"USA. New York. Steuben County. 1250-ft elev., 1.3 mi N up Stephens Creek from Carson-Adrian Rd,  2.7 mi ENE of Canisteo.","Canisteo, Canisteo, Steuben County, New York, United States, 14823",-77.6058225,42.2703487,-77.6180649,-77.590035,42.2591189,42.281698,1605
USA. Tennessee. Benton County. Camden.,"Camden, Benton County, Tennessee, United States, 38320",-88.0978151,36.0589486,-88.1304849,-88.0780661,36.0401161,36.0897561,3610
"Sweden, Gotland.","Gotland, Gotland County, Sweden",18.4867447,57.4684121,18.085562,19.1228587,56.9049485,57.9298153,63869
"USA, Arizona, Gila County, 0.3 mi north up gully from Rt. 77, 1.3 mi north-northeast of Winkelman. AZ09","Winkelman, Gila County, Arizona, United States",-110.7709387,32.9875659,-110.774822,-110.7574521,32.9758759,32.994101,1346
"Italy. Trento Province. Trento, Tyrol.","Autonomous Province of Trento, Trentino-South Tyrol, Italy",11.1175392,46.0512004,10.4521314,11.9626787,45.6730625,46.5327642,66607
"France, Nouvelle-Aquitaine, La Rochelle","La Rochelle, Charente-Maritime, Nouvelle-Aquitaine, France",-1.151139,46.160329,-1.2418785,-1.1110691,46.1331579,46.1909446,4599
"Canada, Quebec, Cape Blanc, southwest of Perce, Gaspe Peninsula.","Gaspé Peninsula, La Haute-Gaspésie Regional County Municipality, Gaspésie–Îles-de-la-Madeleine, Quebec, Canada, G4V 2E4",-65.8333333,48.6666667,-65.83468228,-65.83198432,48.66531772,48.66801568,180
"Canada, Quebec, along crest of ridge, Reddish Point Pointe Reddish. 389119b","Quebec, Canada",-73.5491361,52.9399159,-79.7642783,-57.1054864,44.9913581,62.6110383,993329
"USA. West Virginia. Pendleton County. Road cut about 12 miles west of Franklin, along U.S. Route 33.","U.S. Route 33, Franklin, Pendleton County, West Virginia, United States",-79.3299213,38.6511411,-79.3325889,-79.3238122,38.6476083,38.6550231,456
"USA, Nebraska, Otoe County, Nebraska City, Clay Pit","Nebraska City, Otoe County, Nebraska, United States, 68410",-95.8593616,40.6765745,-95.8876049,-95.8358939,40.6491991,40.704263,3659
"USA. Arkansas. Marion County. Yellville. drusy, red-stained, porous chert of Black Ledge, 40-60 fft above base of Powell, 3 mi N by NE of Yellville.  MSM A4.8  , Marion County","Yellville, Marion County, Arkansas, United States, 72687",-92.6847511,36.2260416,-92.707067,-92.669052,36.2112649,36.2463031,2591
"USA, Texas, Brewster County, Hess Canyon, 4 miles northeast of Hess Ranch and about 2 miles west of Old Word Ranch, Glass Mountains.","Hess Canyon, Brewster County, Texas, United States, 79842",-103.2071162,30.3337771,-103.2084652,-103.2057672,30.33242812,30.33512608,198
"Canada, Quebec, Anticosti Island, Jumpers.","Anticosti Island, Minganie Regional County Municipality, Côte-Nord, Quebec, Canada, G0G",-62.9555318,49.5495194,-64.5239119,-61.6694982,49.0625037,49.9521358,102929
Canada. Quebec. Anticosti Island. Southwest Point.,"Anticosti Island, Minganie Regional County Municipality, Côte-Nord, Quebec, Canada, G0G",-62.9555318,49.5495194,-64.5239119,-61.6694982,49.0625037,49.9521358,102929
"Canada, Quebec, about 0.5 mi east of Death Point Pointe des Morts, Anticosti Island.","Pointe des Morts, Minganie Regional County Municipality, Côte-Nord, Quebec, Canada",-63.0818256,49.2221874,-63.08317458,-63.08047662,49.22083842,49.22353638,179
Canada. Quebec. Anticosti Island. Junction Cliff. 306335,"Anticosti Island, Minganie Regional County Municipality, Côte-Nord, Quebec, Canada, G0G",-62.9555318,49.5495194,-64.5239119,-61.6694982,49.0625037,49.9521358,102929
"Canada. Quebec. West Box River Cliff, Anticosti Island.","Anticosti Island, Minganie Regional County Municipality, Côte-Nord, Quebec, Canada, G0G",-62.9555318,49.5495194,-64.5239119,-61.6694982,49.0625037,49.9521358,102929
Canada. Quebec. Anticosti Island. Wreck Beach C. 306374,"Anticosti Island, Minganie Regional County Municipality, Côte-Nord, Quebec, Canada, G0G",-62.9555318,49.5495194,-64.5239119,-61.6694982,49.0625037,49.9521358,102929
United Kingdom. England. Hereford. Eastnor.,"Eastnor, Ledbury, Herefordshire, England, United Kingdom, HR8",-2.391321,52.029936,-2.3958585,-2.3861355,52.0261125,52.0350405,527
USA. New York. Albany County. New Salem. Countryman Hill.,"New Salem, New Scotland, Albany County, New York, United States, 12186",-73.96889,42.62278,-73.97023898,-73.96754102,42.62143102,42.62412898,186
USA. New York. Orange County. Deer Park.,"Deerpark, Orange County, New York, United States",-74.663464,41.4591459,-74.762623,-74.529751,41.347772,41.502394,12157
USA. New York. Otsego County. Cherry Valley.,"Cherry Valley, Cherry Valley, Otsego County, New York, United States, 13320",-74.7532018,42.7956294,-74.760953,-74.7406109,42.792251,42.804612,737
"Canada. Newfoundland. West side of Long Point at Black Duck Cove, the ledges are seen as reefs out in the water. 345018","Black Duck Cove, Newfoundland and Labrador, Canada, A0K 0C6",-56.798466,51.195687,-56.79981498,-56.79711702,51.19433802,51.19703598,177
"Canada. Newfoundland. Long Point. Along the west shore of Long Point, within 0.5 miles south of the lighthouse. 345016","Long Point, Newfoundland and Labrador, Canada, A0N 1T1",-58.796656,48.7628259,-58.79800498,-58.79530702,48.76147692,48.76417488,180
"Canada, Newfoundland, north of Lighthouse along Gulf shore, Point Riche, western Newfoundland.","Pointe Riche, Port au Choix, Terre-Neuve-et-Labrador, Canada, A0K 4C0",-57.4084183,50.6959554,-57.40976728,-57.40706932,50.69460642,50.69730438,178
"USA. Texas. Brewster County, about .25 mi W of the Fenstermacher ranch house on the Old Word Ranch, Glass Mountains.","Brewster County, Texas, United States",-103.3587288,29.6629938,-103.80068,-102.3208982,28.971547,30.6659389,87845
"USA, Texas, Brewster County, Split Tank on Fenstermacher Ranch Old Word Ranch, Glass Mountains.","Brewster County, Texas, United States",-103.3587288,29.6629938,-103.80068,-102.3208982,28.971547,30.6659389,87845
USA. New York. Monroe County. Pittsford. Area excavated for 1996 construction of Wegmans Supermarket currently located at 3195 Monroe Avenue.,"3195, Monroe Avenue, Rochester, Pittsford, Monroe County, New York, United States, 14618",-77.543491,43.106588,-77.54451588,-77.54181792,43.10507562,43.10777358,188
USA. New York. Monroe County. Brighton. 0.1 km S of intersection of NY 31 Monroe Ave  Westfall Rd.,"Monroe Avenue & Westfall Road, Brighton, Brighton, Monroe County, New York, United States, 14618",-77.5538178,43.1165097,-77.55516678,-77.55246882,43.11516072,43.11785868,186
"Canada. Ontario. Grey County. Owen Sound. about 1 mi E of Seldon Hotel, on top of Clinton escarpment.","Owen Sound, Grey County, Ontario, Canada",-80.9405602,44.5690305,-80.964285,-80.891868,44.540959,44.6096379,3645
"Canada. Ontario. Manitoulin County. Manitowaning. top layers, The Rocks, back of Manitowaning.  31943  , Manitoulin County","Manitowaning, Assiginack, Manitoulin District, Ontario, Canada, P0P 1N0",-81.813685,45.737315,-81.81503398,-81.81233602,45.73596602,45.73866398,183
Canada. Ontario. Region of Peel. Cataract. Cataract Falls. 342630,"Cataract Road, Caledon, Regional Municipality of Peel, Ontario, Canada, L0N",-80.0245072,43.8215894,-80.0299136,-80.0199562,43.8118395,43.8317397,1167
"Canada. Ontario. Grey County. Owen Sound. Wrights flour mill, a few hundred ft E of road,  about 1 mi W of Seldon Hotel.","Durham, West Grey, Grey County, Ontario, Canada, N0G 1R0",-80.8185006,44.1763254,-80.8524547,-80.7826143,44.1624531,44.1869224,3102
"Canada. Ontario. Simcoe County. Along road near top of Blue Mountain, 4 miles west-southwest of Simcoe County.","The Blue Mountains, Grey County, Ontario, Canada",-80.4616828,44.5458789,-80.515089,-80.2664899,44.3727654,44.5962451,16484
"USA, Missouri, Harrison County, Bethany, 4.5 mi S of Bethany","South Street, Bethany, Bethany Township, Harrison County, Missouri, United States, 64424",-94.0478207,40.2579293,-94.0586732,-94.036553,40.25649592,40.25919388,937
USA. Kansas. Wyandotte County. Edwardsville.,"Edwardsville, Wyandotte County, Kansas, United States, 66111",-94.8196847,39.0611154,-94.853615,-94.788164,39.0435141,39.105972,3528
"USA, Kansas, Linn County, La Cygne, 3 mi E of La Cygne","LaCygne, Lincoln Township, Linn County, Kansas, United States, 66040",-94.7613475,38.3500206,-94.7796249,-94.7427089,38.337686,38.35995,1967
"USA. Nebraska. Sarpy County. Meadow Station. Kiewitz Quarry, just west of Meadow Station.","Sarpy County, Nebraska, United States",-96.195132,41.0744042,-96.339805,-95.841611,40.9943079,41.1909909,15071
"USA. Kansas. Leavenworth County. Lenape. Union Pacific Quarry, 1 mile E of Lenape.","Lenape, Sherman Township, Leavenworth County, Kansas, United States, 66052",-94.9528213,38.9962152,-94.95417028,-94.95147232,38.99486622,38.99756418,190
USA. Nebraska. Cass County. Oreapolis. 2 mi W of Oreapolis.,"Oreapolis, Plattsmouth Precinct, Cass County, Nebraska, United States, 68048",-95.918344,41.047499,-95.91969298,-95.91699502,41.04615002,41.04884798,188
"USA. Missouri. Grundy County. Trenton. 1 mi W of Trenton. 701, MO20.1","Trenton, Trenton Township, Grundy County, Missouri, United States, 64683",-93.6166074,40.0789018,-93.6369371,-93.5608449,40.058796,40.119052,2827
"USA, Missouri, St. Louis County, Clayton, 25 mi W of courthouse, 300 ft S of Ladue Road.","Ladue Road, Clayton, St. Louis County, Missouri, United States",-90.3513445,38.6533637,-90.3535886,-90.3486452,38.65199307,38.65469103,248
USA. Kansas. Douglas County. Lecompton. 1.5 mi W of Lecompton.,"Lecompton, Lecompton Township, Douglas County, Kansas, United States, 66050",-95.3946967,39.0444449,-95.4050301,-95.38134,39.0149961,39.056382,1759
"USA, Missouri, Jackson County, SW of E 15th Street, E Kansas City.","East 15th Street, Downtown Kansas City, Kansas City, Kaw Township, Jackson County, Missouri, United States",-94.5758156,39.0956511,-94.5775967,-94.5740496,39.09430517,39.09700313,214
"USA, Kansas, Osage County, Melvern, railroad cut in the southern part of Melvern, highway cut about 1-2 miles north of Melvern.","Melvern Lake Parkway, Olivet Township, Osage County, Kansas, United States",-95.7048573,38.5004557,-95.711556,-95.6970823,38.4929834,38.508127,1015
"USA. Oklahoma. Wagoner County. Rex Bridge over Grand River, about 8-10 mi N of Muskogee.","Wagoner County, Oklahoma, United States",-95.5197394,35.9192397,-95.8194771,-95.2079181,35.76516,36.163011,32024
"USA. Nebraska, Sarpy County, Dyson Hollow, 1.13 miles W of La Platte.","Dyson Hollow Road, LaPlatte I Precinct, Sarpy County, Nebraska, United States, 68123",-95.9518967,41.0764855,-95.95421013,-95.95151217,41.0633263,41.0897518,1474
USA. Oklahoma. Pontotoc County. near Ada.,"Ada, Pontotoc County, Oklahoma, United States",-96.6783449,34.774531,-96.7574741,-96.5648481,34.505934,34.840111,12680
"USA, Nebraska, Lancaster County, 1 mi SE of Bennet","Bennet, Nemaha Precinct, Lancaster County, Nebraska, United States, 68317",-96.5066802,40.6826333,-96.5114771,-96.4923342,40.6748963,40.6880619,950
USA. Nebraska. Lancaster County. Bennet. 1.75 mi E of Bennet.,"Bennet, Nemaha Precinct, Lancaster County, Nebraska, United States, 68317",-96.5066802,40.6826333,-96.5114771,-96.4923342,40.6748963,40.6880619,950
USA. Oklahoma. Washington County. Dewey. Quarry east of Dewey.,"Dewey, Washington County, Oklahoma, United States",-95.9355387,36.7959193,-95.9489619,-95.917129,36.771517,36.8295149,2961
"USA, Nebraska, Cass County, Plattsmouth, zone B, roadside, 2 mi NW of Plattsmouth.","Plattsmouth, Plattsmouth Precinct, Cass County, Nebraska, United States, 68048",-95.8808424,41.0111103,-95.922217,-95.8681889,40.97695,41.0263049,1995
"USA, Nebraska, Cass County, Ashland, 2.5 mi S  4 mi E of Ashland","Cass County, Nebraska, United States",-96.1526985,40.8755529,-96.463861,-95.809379,40.78347,41.0660011,28169
USA. Nebraska. Cass County. Nehawka. Snyderville Quarry.,"Nehawka, Nehawka Precinct, Cass County, Nebraska, United States, 68413",-95.9915664,40.8303487,-95.997762,-95.9834449,40.824676,40.834061,800
"USA, Kansas, Douglas County, Eudora","Eudora, Eudora Township, Douglas County, Kansas, United States, 66025",-95.0985807,38.9433372,-95.1212179,-95.0702529,38.9096001,38.950778,2591
"USA, Nebraska, Cass County, Weeping Water, 1 mi W  1.5 mi N of Weeping Water","I Street, Weeping Water, Cass County, Nebraska, United States, 68463",-96.1424148,40.8699615,-96.1450769,-96.1400239,40.86860337,40.87130133,251
"USA. Kansas. Atchison County. Atchison. On highway near the Kereford Quarry, 2 mi S of Atchison.","Atchison, Shannon Township, Atchison County, Kansas, United States",-95.1216356,39.5630521,-95.251259,-95.096904,39.527728,39.594701,4106
"USA. Nebraska. Johnson County. Elk Creek. 2.5 miles NW of Elk Creek, just E of RR crossing.","Elk Creek, Todd Creek Precinct, Johnson County, Nebraska, United States, 68348",-96.129451,40.2858334,-96.1328599,-96.122674,40.2842719,40.2914839,338
"USA, Nebraska, Cass County, Nehawka, Van Court Quarry","Nehawka, Nehawka Precinct, Cass County, Nebraska, United States, 68413",-95.9915664,40.8303487,-95.997762,-95.9834449,40.824676,40.834061,800
USA. Nebraska. Saunders County. 2.5 mi S  4 mi E of Ashland.,"Ashland, Ashland Township, Saunders County, Nebraska, United States, 68003",-96.3683157,41.0393413,-96.392216,-96.352164,41.027243,41.048736,1713
USA. Missouri. Platte County. E Leavenworth. 0.5 mi S of E Leavenworth.,"Platte County, Missouri, United States",-94.7691586,39.3475649,-95.1028878,-94.600347,39.1537071,39.533347,25232
"USA. Missouri. Jackson County. North of Kansas City, along Cliff Drive.","Cliff Drive, Northeast Kansas City, Kansas City, Jackson County, Missouri, United States",-94.5451558,39.1155885,-94.5624426,-94.5276366,39.1100392,39.1212306,1617
"USA. Kansas. Riley County. Pawnee. Pawnee Creek, 3.5 mi N  1.25 mi W of Pawnee.","Pawnee Creek, Bourbon County, Kansas, United States, 66701",-94.85726893,37.73525021,-94.9039424,-94.8105955,37.6752141,37.7952863,7830
USA. Michigan. Eaton County. Grand Ledge.,"Grand Ledge, Eagle Township, Eaton County, Michigan, United States, 48837",-84.7463757,42.7533685,-84.769196,-84.7197691,42.732846,42.7811971,2948
"USA, Nebraska, Cass County, Ashland, SE of Ashland","Cass County, Nebraska, United States",-96.1526985,40.8755529,-96.463861,-95.809379,40.78347,41.0660011,28169
USA. Missouri. Holt County. SE of Forest City.,"Forest City, Forest Township, Holt County, Missouri, United States",-95.1919204,39.9824969,-95.203671,-95.175327,39.976653,39.991389,1195
USA. Kansas. Wyandotte County. Forest Lake near Bonner Springs.,"Bonner Springs, Shawnee Mission, Wyandotte County, Kansas, United States",-94.8835754,39.059726,-94.917953,-94.834942,39.0361631,39.115934,3962
"USA, Nebraska, Pawnee County, Table Rock","Table Rock, 3, Table Rock, Pawnee County, Nebraska, United States, 68447",-96.0947268,40.1761111,-96.104632,-96.0733569,40.174582,40.182112,861
"USA, Kansas, Shawnee County, Topeka, 0.5 mile N of Poor Farm","Topeka, Shawnee County, Kansas, United States",-95.6751576,39.0473451,-95.812638,-95.603557,38.917194,39.1094,9265
"USA. Nebraska. Cass County. Jones Point. Late Pennsylvanian. Virgilian. Shawnee Grp. Topeka Ls. Coal Creek Mbr. Union Ls no longer used. Replaced with Coal Creek Ls bed.., Cass County","Cass County, Nebraska, United States",-96.1526985,40.8755529,-96.463861,-95.809379,40.78347,41.0660011,28169
USA. Nebraska. Cass County. NW of Nehawka.,"Nehawka, Nehawka Precinct, Cass County, Nebraska, United States, 68413",-95.9915664,40.8303487,-95.997762,-95.9834449,40.824676,40.834061,800
"USA. Kansas. Jackson County. Holton. South bank of creek in road cut, 3 miles south of Holton.","Holton, Jackson County, Kansas, United States, 66436",-95.7363723,39.4652724,-95.758534,-95.682316,39.4534469,39.4958311,2316
"USA, Nebraska, 2.5 miles southwest of Stine on north-south road. 12, N-54.2","North South Road, Hamilton County, Nebraska, United States",-97.9597101,40.9793598,-97.9701846,-97.9592863,40.8701677,41.0872706,11984
USA. Nebraska. Cass County. Nehawka. NW of Nehawka.,"Nehawka, Nehawka Precinct, Cass County, Nebraska, United States, 68413",-95.9915664,40.8303487,-95.997762,-95.9834449,40.824676,40.834061,800
"USA. Nebraska. Sarpy County. Kiewitz Quarry, just W of Meadow.","Sarpy County, Nebraska, United States",-96.195132,41.0744042,-96.339805,-95.841611,40.9943079,41.1909909,15071
USA. Kansas. Shawnee County. Topeka. Railroad cut 4.5 miles northeast of Topeka.,"Northwest Railroad Street, Topeka, Shawnee County, Kansas, United States, 66608",-95.6721726,39.0670649,-95.6755428,-95.6688031,39.0649275,39.0685667,336
USA. Nebraska. Otoe County. Nebraska City. Under the Burlington Bridge.,"Nebraska City, Otoe County, Nebraska, United States, 68410",-95.8593616,40.6765745,-95.8876049,-95.8358939,40.6491991,40.704263,3659
"USA, Kansas, Doniphan County, RR cut 2.5 miles southeast of Iowa Point.","Iowa Point, Iowa Township, Doniphan County, Kansas, United States, 66035",-95.238333,39.928333,-95.23968198,-95.23698402,39.92698402,39.92968198,189
"USA, Nebraska, Cass County, Weepingwater Creek, mouth of Weepingwater Creek N 25.3, 175","Weeping Water Road, Cass County, Nebraska, United States",-96.0303176,40.871246,-96.1209133,-95.93965,40.8610038,40.8811559,7721
USA. Nebraska. Cass County. Atwood Quarry on Cedar Creek.,"Cedar Creek, Eight Mile Grove Precinct, Cass County, Nebraska, United States, 68037",-96.1023468,41.0467204,-96.114791,-96.0900761,41.035769,41.0519739,1185
USA. Missouri. Harrison County. Bethany. Quarry 0.25 mi SW of falls at Bethany.,"Bethany, Bethany Township, Harrison County, Missouri, United States, 64424",-94.0093933,40.2895636,-94.01064223,-94.00794427,40.28816992,40.29086788,188
"USA, Nebraska, Pawnee County, Elk Creek, along railroad northeast of Elk Creek","Elk Creek, Todd Creek Precinct, Johnson County, Nebraska, United States, 68348",-96.129451,40.2858334,-96.1328599,-96.122674,40.2842719,40.2914839,338
USA. Nebraska. Nemaha County. Stine. ravine 1 mi W of Bracken or Stine.,"Nemaha County, Nebraska, United States",-95.8142885,40.4074745,-96.067091,-95.5509511,40.261216,40.5626278,26930
"USA. Nebraska. Sarpy County. Meadow. Kiewitz Quarry, just W of Meadow.","Sarpy County, Nebraska, United States",-96.195132,41.0744042,-96.339805,-95.841611,40.9943079,41.1909909,15071
"USA, Nebraska, Otoe County, Walnut Creek, 0.375 mi S of mouth of Walnut Creek","Walnut Street, Syracuse Precinct, Otoe County, Nebraska, United States, 68446",-96.1885501,40.6580503,-96.19051203,-96.18781407,40.6489846,40.668022,1020
"USA, Kansas, Wabaunsee County, 4 mi N and 1 mi W of Maple Hill","Maple Hill, Maple Hill Township, Wabaunsee County, Kansas, United States, 66507",-96.0282195,39.0845812,-96.031292,-96.0242411,39.0786189,39.09131,713
USA. Missouri. Daviess County. Gallatin. Railroad cut near Gallatin.,"Gallatin, Union Township, Daviess County, Missouri, United States, 64640",-93.9621669,39.9144513,-93.986198,-93.9470811,39.891998,39.925586,1787
USA. Oklahoma. Pontotoc County. 1 mi S of Ada.,"Ada, Pontotoc County, Oklahoma, United States",-96.6783449,34.774531,-96.7574741,-96.5648481,34.505934,34.840111,12680
"USA, New York, Monroe County, Rochester, Barge canal at Lee Rd.","Lee Road, Rochester, Monroe County, New York, United States, 14606",-77.6805906,43.1786234,-77.68180998,-77.67911202,43.1646491,43.1919476,1485
"Canada. Ontario. Welland County. Fort Erie. Ridgemount Quarry South, northwest corner of Ridgemount Rd  Bertie St, about 8 km west of Fort Erie, and about 11 km west of Niagara River, Bertie Township.","Ridgemount Road & Bertie Street, Fort Erie, Fort Erie, Regional Municipality of Niagara, Ontario, Canada, L0S 1N0",-79.0033072,42.9115952,-79.00465618,-79.00195822,42.91024622,42.91294418,186
"Czechoslovakia, Bohemia, Koneprusy","Koněprusy, Beroun 1, Beroun District, Central Bohemian Region, Czechia, 266 01",14.0657589,49.9208956,14.0460671,14.0906565,49.911917,49.9355943,1731
"Canada, Nova Scotia, Antigonish County, exposed in the first prominent seaward projecting cliff west of the mouth of Arisaig Brook along Northumberland Strait shore, Arisaig.","Arisaig, Antigonish County, Nova Scotia, Canada, B2G 2L1",-62.166667,45.75,-62.16801598,-62.16531802,45.74865102,45.75134898,183
"Canada. Nova Scotia. Antigonish County. Arisaig. Along shore, at mouth of and on the east bank of Arisaig Brook, southwest of Arisaig Point.","Arisaig, Antigonish County, Nova Scotia, Canada, B2G 2L1",-62.166667,45.75,-62.16801598,-62.16531802,45.74865102,45.75134898,183
"Canada. Quebec. Anticosti Island. West side of Ellis Bay, zone C. 306354","Anticosti Island, Minganie Regional County Municipality, Côte-Nord, Quebec, Canada, G0G",-62.9555318,49.5495194,-64.5239119,-61.6694982,49.0625037,49.9521358,102929
"Canada. Newfoundland. Forteau. About 0.5 mi west of the south end of Forteau village, Labrador. 347616","Forteau, Newfoundland and Labrador, Canada",-56.9575656,51.4736442,-56.972643,-56.918154,51.4555163,51.5022383,2273
USA. Arizona. Cochise County. Chiricahua Mountains.,"Chiricahua Mountains, Cochise County, Arizona, United States, 85625",-109.3822849,31.9298117,-109.3836339,-109.3809359,31.92846272,31.93116068,197
USA. Kentucky. Edmonson County. Brownsville.,"Brownsville, Edmonson County, Kentucky, United States, 42210",-86.2677545,37.1925472,-86.295251,-86.2453419,37.177937,37.217637,2931
"Germany. Rheinland-Pfalz. Bad Kreuznach. Drrebach. Drrebachtal. Drrebachtal, Drrebach, Stromberg, Bad Kreuznach Tal  Valley. , Bad Kreuznach","Stromberg, Bad Kreuznach, Rhineland-Palatinate, Germany, 55",7.7792771,49.9458981,7.7388849,7.7989911,49.9256297,49.9667743,2719
Germany. Rheinland-Pfalz. Oberstadtfeld.,"Oberstadtfeld, Vulkaneifel, Rhineland-Palatinate, Germany, 54570",6.7693791,50.1761864,6.7168472,6.7929591,50.1667509,50.1930381,2520
"Germany, Rheinland-Pfalz, Vulkaneifel, Oberstadtfeld.","Oberstadtfeld, Vulkaneifel, Rhineland-Palatinate, Germany, 54570",6.7693791,50.1761864,6.7168472,6.7929591,50.1667509,50.1930381,2520
USA. New York. Schoharie County. Schoharie.,"Schoharie, Schoharie, Schoharie County, New York, United States, 12157",-74.3095787,42.6659087,-74.3301381,-74.2988861,42.6521931,42.679723,1767
USA. Montana. Fergus County. Bear Gulch Lagerstatten.,"2749, Fairview Road, Forest Grove, Fergus County, Montana, United States, 59441",-109.0293776,46.9661138,-109.0307016,-109.0280036,46.96475387,46.96745183,182
USA. Illinois. Hardin County. Eichorn. 0.5 mi SSW of Eichorn.,"Eichorn, Stone Church Precinct, Hardin County, Illinois, United States, 62938",-88.4029539,37.490215,-88.40430288,-88.40160492,37.48886602,37.49156398,191
USA. Montana. Fergus County. Atherton Gulch Bear Gulch Lagerstatten.,"Fergus County, Montana, United States",-109.4141,47.2126745,-110.2135959,-108.313034,46.6934681,47.8034239,83877
USA. Michigan. Luce County. Newberry. Gravel pit on the southwest corner of the intersection of 123 and 28.,"Gravel Pit Tr, McMillan Township, Luce County, Michigan, United States, 49868",-85.322656,46.415613,-85.3370642,-85.3142759,46.4068472,46.4278129,1475
"USA. Texas. Brewster County. near Fenstermacher ranch house on the Old Word Ranch, Glass Mountains, west TX. , Brewster County","Glass Mountains, Pecos County, Texas, United States, 79735",-103.1090536,30.4354441,-103.1104026,-103.1077046,30.43409512,30.43679308,198
"USA, New York, Albany County, Countryman Hill, just W of New Salem.","New Salem Road, New Scotland, Albany County, New York, United States, 12186",-73.9631059,42.6349155,-73.9712488,-73.9499426,42.6226547,42.6474543,1517
"USA, Tennessee, Smith County, Rome, Highway 70N, 13 mi E of Lebanon","Rome, Smith County, Tennessee, United States, 37087",-86.0716556,36.2619973,-86.07300458,-86.07030662,36.26064832,36.26334628,193
USA. Tennessee. Blount County. Gullied slopes below the cemetery at the northeast edge of Friendsville.,"Friendsville, Blount County, Tennessee, United States",-84.1357453,35.7603575,-84.171103,-84.092634,35.733082,35.7802561,4403
Canada. Quebec. Anticosti Island. 1 mi W of White Cliff. 306313,"Anticosti Island, Minganie Regional County Municipality, Côte-Nord, Quebec, Canada, G0G",-62.9555318,49.5495194,-64.5239119,-61.6694982,49.0625037,49.9521358,102929
"Canada. Quebec. Anticosti Island. Cliff, W side of Vaureal Bay. 306328","Anticosti Island, Minganie Regional County Municipality, Côte-Nord, Quebec, Canada, G0G",-62.9555318,49.5495194,-64.5239119,-61.6694982,49.0625037,49.9521358,102929
"Canada, Quebec, Anticosti Island, Vaureal River section.","Anticosti Island, Minganie Regional County Municipality, Côte-Nord, Quebec, Canada, G0G",-62.9555318,49.5495194,-64.5239119,-61.6694982,49.0625037,49.9521358,102929
Canada. Quebec. Anticosti Island. East Cliff H. 306384,"Anticosti Island, Minganie Regional County Municipality, Côte-Nord, Quebec, Canada, G0G",-62.9555318,49.5495194,-64.5239119,-61.6694982,49.0625037,49.9521358,102929
Canada. Quebec. Anticosti Island. Cape MacGilvray.,"Anticosti Island, Minganie Regional County Municipality, Côte-Nord, Quebec, Canada, G0G",-62.9555318,49.5495194,-64.5239119,-61.6694982,49.0625037,49.9521358,102929
"Canada, Quebec, Anticosti Island, Cape James","Anticosti Island, Minganie Regional County Municipality, Côte-Nord, Quebec, Canada, G0G",-62.9555318,49.5495194,-64.5239119,-61.6694982,49.0625037,49.9521358,102929
Canada. Quebec. Anticosti Island. Back of Prinsta Bay. 306344,"Anticosti Island, Minganie Regional County Municipality, Côte-Nord, Quebec, Canada, G0G",-62.9555318,49.5495194,-64.5239119,-61.6694982,49.0625037,49.9521358,102929
Canada. Quebec. Anticosti Island. East Cliff.,"Anticosti Island, Minganie Regional County Municipality, Côte-Nord, Quebec, Canada, G0G",-62.9555318,49.5495194,-64.5239119,-61.6694982,49.0625037,49.9521358,102929
"Canada. Quebec. Anticosti Island. Heath Point, west of Cormorant Point.","Heath Point, Minganie, Côte-Nord, Québec, Canada, G0G 1P0",-61.7057364,49.0867923,-61.70708538,-61.70438742,49.08544332,49.08814128,179
Canada. Quebec. Anticosti Island. Jumpers 2.,"Anticosti Island, Minganie Regional County Municipality, Côte-Nord, Quebec, Canada, G0G",-62.9555318,49.5495194,-64.5239119,-61.6694982,49.0625037,49.9521358,102929
Canada. Quebec. Anticosti Island. Cliff 0.5 mi E of Junction Cliff. 306334,"Anticosti Island, Minganie Regional County Municipality, Côte-Nord, Quebec, Canada, G0G",-62.9555318,49.5495194,-64.5239119,-61.6694982,49.0625037,49.9521358,102929
"Mexico, Coahuila State, between El Tordillo  La Difunta and Cerro Caballo.","Los Difuntos, Coahuila de Zaragoza, Mexico, 25878",-101.46154,26.600158,-101.462889,-101.460191,26.59880902,26.60150698,201
USA. Arizona. Cochise County. Blue Mtn. Vanar quad.,"Vanar, Cochise County, Arizona, United States, 85632",-109.095058,32.2411912,-109.096407,-109.093709,32.23984222,32.24254018,196
"USA, Ohio, Hamilton County, Cincinnati","Cincinnati, Hamilton County, Ohio, United States",-84.5120196,39.1031182,-84.7123951,-84.3695489,39.0520649,39.2211029,17978
USA. Kentucky. Franklin County. Frankfort.,"Frankfort, Franklin County, Kentucky, United States, 40601",-84.8784682,38.1950324,-84.9214311,-84.809801,38.158082,38.22999,5567
USA. Minnesota. Ramsey County. St. Paul.,"Saint Paul, Ramsey County, Minnesota, United States",-93.0899578,44.9537029,-93.207787,-93.004324,44.887399,44.992016,7985
USA. New York. Oneida County. Rome.,"Rome, Oneida County, New York, United States",-75.4557303,43.2128473,-75.667017,-75.3409141,43.168892,43.2815229,12048
"Russia, Leningrad Oblast, Popovka near St. Petersburg.","Popovka, Kingiseppsky District, Leningrad Oblast, Russia, 188490",28.2033178,59.3948183,28.19737,28.2084858,59.391417,59.3980239,462
"USA, Minnesota, Dodge County, Old Concord.","Concord, Concord Township, Dodge County, Minnesota, United States, 55985",-92.8363068,44.1474641,-92.83765578,-92.83495782,44.14611512,44.14881308,185
"USA, Wisconsin, Iowa County, Mineral Point","Mineral Point, Mineral Point, Iowa County, Wisconsin, United States, 53565",-90.1798473,42.859997,-90.206058,-90.1575479,42.843788,42.8837761,2799
USA. Ohio. Montgomery County. Dayton.,"Dayton, Jefferson Township, Montgomery County, Ohio, United States",-84.1936144,39.7592225,-84.311377,-84.092938,39.7018339,39.9208231,11938
USA. Minnesota. Hennepin County. St. Anthony Falls.,"Saint Anthony Falls, Saint Anthony Main, Minneapolis, Hennepin County, Minnesota, United States, 55414",-93.2555026,44.9821877,-93.25685158,-93.25415362,44.98083872,44.98353668,184
USA. New York. Oneida County. Trenton Falls.,"Trenton, Oneida County, New York, United States",-75.2245693,43.228708,-75.2872939,-75.1064949,43.181769,43.325387,7292
USA. Kentucky. Franklin County.,"Franklin County, Kentucky, United States",-84.8984775,38.2481018,-85.0242641,-84.7251679,38.093437,38.374836,20402
USA. Oklahoma. Pontotoc County. Franks. 295421,"Pontotoc County, Oklahoma, United States",-96.663812,34.7685043,-96.9325801,-96.406048,34.5053889,34.9652131,32120
USA. Ohio. Hamilton County. Cincinnati.,"Cincinnati, Hamilton County, Ohio, United States",-84.5120196,39.1031182,-84.7123951,-84.3695489,39.0520649,39.2211029,17978
"USA, Oklahoma, Pontotoc County, Arbuckle Mountain, Franks section","230, West 12th Street, Ada, Pontotoc County, Oklahoma, United States, 74820",-96.6817245,34.7736129,-96.68306598,-96.68036802,34.77217607,34.77487403,187
USA. Virginia. Scott County. Mount Hagan schoolgrounds.,"Scott County, Virginia, United States",-82.605118,36.6815794,-82.9851241,-82.2941341,36.5934609,36.885606,35364
USA. Tennessee. Cannon County. 1 Mi SE of Woodbury.,"Woodbury, Cannon County, Tennessee, United States, 37190",-86.0716565,35.8275672,-86.0971939,-86.046933,35.809923,35.840016,2626
"Canada, Quebec, Junction Cliff.","Québec City, Québec, Capitale-Nationale, Quebec, Canada",-71.2074596,46.8130816,-71.5490766,-71.1407543,46.7335454,46.9807385,19319
"USA, Tennessee, Grainger County, Washburn.","Washburn, Grainger County, Tennessee, United States, 37888",-83.5955574,36.2894746,-83.59690638,-83.59420842,36.28812562,36.29082358,193
"USA. Kansas. Shawnee County. Topeka. Topeka Clay Pit, west of Topeka.","Southwest Clay Street, Topeka, Shawnee County, Kansas, United States",-95.690853,39.042678,-95.6931356,-95.6826122,39.0222803,39.0629896,2273
"USA. Nebraska. Richardson County. Church Farm, 2.5 mi SE of Du Bois.","Du Bois, 6, South Fork, Pawnee County, Nebraska, United States, 68345",-96.0483352,40.0347221,-96.0576539,-96.0386781,40.029685,40.040623,972
USA. Nebraska. Otoe County. Dunbar. old quarry SE of Dunbar.,"Dunbar, Delaware Precinct, Otoe County, Nebraska, United States, 68346",-96.0280624,40.6686132,-96.0391799,-96.022988,40.663642,40.67256,613
USA. Nebraska. Otoe County. Unadilla. 2 mi SE of Unadilla.,"Nebraska 2, Unadilla, South Russell Precinct, Otoe County, Nebraska, United States",-96.2690154,40.6854718,-96.2754296,-96.2638923,40.6827471,40.6898863,621
USA. Missouri. Jackson County. Kansas City. along Turkey Creek.,"Kansas City, Jackson County, Missouri, United States",-94.5785667,39.0997265,-94.765567,-94.385448,38.824259,39.3562099,32998
USA. Missouri. Jackson County. Kansas City. Quarries along Turkey Creek.,"Kansas City, Jackson County, Missouri, United States",-94.5785667,39.0997265,-94.765567,-94.385448,38.824259,39.3562099,32998
USA. Nebraska. Cass County. Burlington Quarry.,"Cass County, Nebraska, United States",-96.1526985,40.8755529,-96.463861,-95.809379,40.78347,41.0660011,28169
USA. Missouri. Grundy County. Trenton. 1 mi W of Trenton.,"Trenton, Trenton Township, Grundy County, Missouri, United States, 64683",-93.6166074,40.0789018,-93.6369371,-93.5608449,40.058796,40.119052,2827
"USA, Kansas, Allen County, Iola, 0.25 mi W of Cement Plant Quarry at Iola","West Street, Iola, Iola Township, Allen County, Kansas, United States, 66749",-95.4090702,37.9222489,-95.4129566,-95.4054978,37.92086652,37.92356448,346
USA. Kansas. Wyandotte County. Muncie. 2 mi NE of Muncie.,"Muncie Drive, Muncie, Kansas City, Wyandotte County, Kansas, United States, 66111",-94.7420089,39.0836127,-94.7465109,-94.7368076,39.0801183,39.087008,550
USA. Missouri. Clay County. Kansas City. Water Works.,"1, Northwest Briarcliff Road, Kansas City, Gallatin Township, Clay County, Missouri, United States, 64116, 1655",-94.5840523,39.1576688,-94.58527688,-94.58257892,39.15625352,39.15895148,189
"USA, Nebraska, Cass County, Nehawka, Snyderville Quarry","Nehawka, Nehawka Precinct, Cass County, Nebraska, United States, 68413",-95.9915664,40.8303487,-95.997762,-95.9834449,40.824676,40.834061,800
"USA. Nebraska. Cass County. Weeping Water. Chonetes zone immediately below the blue ledge, 1 mi N  1 mi E of Weeping Water.  609, N35.5  , Cass County","Weeping Water, Cass County, Nebraska, United States, 68463",-96.139972,40.8699301,-96.159118,-96.125701,40.8590901,40.880047,1646
"USA, Oklahoma, Nowata County, 4 mi NW of Nowata","Nowata, Nowata County, Oklahoma, United States, 74048",-95.6380341,36.700645,-95.656801,-95.562089,36.676821,36.725283,3131
USA. Nebraska. Cass County. Nehawka. Shoemaker Bridge.,"Nehawka, Nehawka Precinct, Cass County, Nebraska, United States, 68413",-95.9915664,40.8303487,-95.997762,-95.9834449,40.824676,40.834061,800
USA. Missouri. Harrison County. Melbourne.,"Harrison County, Missouri, United States",-93.9878427,40.3219529,-94.23238,-93.7631741,40.132909,40.5775481,29560
"USA, Nebraska, Cass County, Weeping Water, NE of Weeping Water","101, West Eldora Avenue, Weeping Water, Cass County, Nebraska, United States, 68463",-96.1404785,40.8697633,-96.14182693,-96.13912897,40.86849607,40.87119403,181
"USA. Texas. Brewster County. North of Leonard Mountain, southeast of hill 5453, Glass Mountains.","Brewster County, Texas, United States",-103.3587288,29.6629938,-103.80068,-102.3208982,28.971547,30.6659389,87845
"USA. Texas. Brewster County. West side of Gilliland Canyon, west of Road Canyon, Glass Mountains.","Brewster County, Texas, United States",-103.3587288,29.6629938,-103.80068,-102.3208982,28.971547,30.6659389,87845
"USA. Texas. Brewster County. Glass Mountains. layer of ls in sh, 1 mi NW of station 3, sheet 2, stations 21 and 22, Glass Mountains, west TX.  T091  Early Permian. Wolfcampian. Wolfcamp Fm., Brewster County","Glass Mountains, Pecos County, Texas, United States, 79735",-103.1090536,30.4354441,-103.1104026,-103.1077046,30.43409512,30.43679308,198
