"originalPlace","interpretedPlace","longitude","latitude","xmin","xmax","ymin","ymax","uncertainty","number"
"USA. Texas. McCulloch County. 1 mi S of Colorado River.","McCulloch County, Texas, United States",-99.2785583,31.2016122,-99.60370999999999,-99.090603,30.940553,31.49372,36998,1
"Italy, Vervei.","Italy",12.56738,41.87194,6.6267201,18.7975999,35.4897,47.092,762462,2
"USA. Wyoming. Niobrara County. between Rawhide Creek and Cheyenne River, most likely from the Lance Creek area, probably bluffs west of Old Woman Creek near Red Bird where the Cheyenne-Deadwood trail went US 85 does now.","Lance Creek, Niobrara County, Wyoming, United States",-104.6419032,43.03246790000001,-104.7758499,-104.567895,42.99125,43.094254,9136,3
"USA. Wyoming. Niobrara County. between Rawhide Creek and Cheyenne River, most likely from the Lance Creek area, probably bluffs west of Old Woman Creek near Red Bird where the Cheyenne-Deadwood trail went US 85 does now.","Deadwood, North Lawrence, Lawrence County, South Dakota, United States",-103.7296415,44.376651,-103.755622,-103.69511,44.354702,44.4201199,3200,3
"USA. Wyoming. Niobrara County. between Rawhide Creek and Cheyenne River, most likely from the Lance Creek area, probably bluffs west of Old Woman Creek near Red Bird where the Cheyenne-Deadwood trail went US 85 does now.","Cheyenne River Reservation, South Dewey, Dewey County, South Dakota, United States",-101.1251489,45.0833144,-102.0004621,-100.2572859,44.5111359,45.4720009,80642,3
"USA, South Dakota, Ziebach County, Section 3, SW slope of kuob.","Ziebach County, South Dakota, United States",-101.702202,44.8481045,-102.0004619,-101.136162,44.51113609999999,45.472871,44288,4
"USA, Mississippi, Tchreva Creek","Mississippi, United States",-89.3985283,32.3546679,-91.6550091,-88.097888,30.139845,34.996099,316825,5
"USA. Texas. Hudspeth County. sh just below ammonoid bed, Fossil Hill, NW Finlay Dome, N of Finlay, Finlay Mountains, west TX.  3892512  , Hudspeth County","Finlay Mountains, Hudspeth County, Texas, United States, 79851",-105.5874606,31.3556794,-105.5888095802915,-105.5861116197085,31.3543304197085,31.3570283802915,197,6
"USA. Texas. Hudspeth County. sh just below ammonoid bed, Fossil Hill, NW Finlay Dome, N of Finlay, Finlay Mountains, west TX.  3892512  , Hudspeth County","Finlay, Hudspeth County, Texas, United States, 79851",-105.629444,31.258611,-105.6307929802915,-105.6280950197085,31.2572620197085,31.2599599802915,197,6
"USA. Texas. El Paso County. Summit of highest hill in mountains west of Hueco Tanks, 6 mi WSW of Hueco Tanks, Hueco Mountains, west Texas.","Hueco Tanks State Park & Historic Site, 6900, Hueco Tanks Road No. 1, El Paso, El Paso County, Texas, United States, 79938",-106.0434449,31.9163705,-106.0445637302915,-106.0418657697085,31.9163705,31.9272691,106,7
"USA. Texas. El Paso County. Summit of highest hill in mountains west of Hueco Tanks, 6 mi WSW of Hueco Tanks, Hueco Mountains, west Texas.","Hueco Mountains, El Paso County, Texas, United States, 79938",-106.0185875,31.9531621,-106.0199364802915,-106.0172385197085,31.9518131197085,31.9545110802915,197,7
"USA. Texas. El Paso County. Summit of highest hill in mountains west of Hueco Tanks, 6 mi WSW of Hueco Tanks, Hueco Mountains, west Texas.","West Texas, El Paso, El Paso County, Texas, United States, 79901",-106.4917179,31.75355119999999,-106.4930668802915,-106.4903689197085,31.75220221970849,31.75490018029149,197,7
"USA. Texas. El Paso County. Summit of highest hill in mountains west of Hueco Tanks, 6 mi WSW of Hueco Tanks, Hueco Mountains, west Texas.","Hueco Tanks, El Paso County, Texas, United States, 79938",-106.0385876,31.920385,-106.0399365802915,-106.0372386197085,31.9190360197085,31.9217339802915,197,7
"USA, Texas, near Gap Tank.","Gap Tank, Pecos County, Texas, United States, 79848",-102.6482061,30.2135149,-102.6495550802915,-102.6468571197085,30.2121659197085,30.2148638802915,198,8
"USA, Texas, near camp at Gap Tank.","Gap Tank, Pecos County, Texas, United States, 79848",-102.6482061,30.2135149,-102.6495550802915,-102.6468571197085,30.2121659197085,30.2148638802915,198,9
"USA, Texas, near Gap Tank camp.","Gap Tank, Pecos County, Texas, United States, 79848",-102.6482061,30.2135149,-102.6495550802915,-102.6468571197085,30.2121659197085,30.2148638802915,198,10
"USA, Wyoming, Washburn Ranch.","Wyoming, United States",-107.2902839,43.0759678,-111.0545581,-104.0522449,40.994772,45.005815,336608,11
"USA, Western Interior Seaway, Fox Hills Formation, Trail City to Timber Lake Member.","Timber Lake, North Dewey, Dewey County, South Dakota, United States, 57656",-101.0740344,45.4291548,-101.0798321,-101.060004,45.421998,45.435968,916,12
"USA, Western Interior Seaway, Fox Hills Formation, Trail City to Timber Lake Member.","Trail City, Ridgeland Township, Dewey County, South Dakota, United States, 57657",-100.7241846,45.4736555,-100.7309622,-100.7101501,45.4687907,45.47854239999999,757,12
"USA, Western Interior Seaway, Fox Hills Formation, Trail City to Timber Lake Member.","Fox Hills, Culver City, Los Angeles County, California, United States",-118.3885597,33.9843627,-118.398356,-118.3789469,33.976731,33.992541,1239,12
"Antarctica, Antarctic Peninsula.","Antarctica, Antarctica",135,-82.86275189999999,-180,180,-90,-28.2602827,797146,13
"Italy, Tamarin.","Italy",12.56738,41.87194,6.6267201,18.7975999,35.4897,47.092,762462,14
"USA. Montana. Fallon County. NDMT11.80 Low rounded ridge badland exposure 100 m west of NFS RD. 783.  R97027  , Fallon County","Fallon County, Montana, United States",-104.4280327,46.3762402,-104.9059881,-104.044194,45.881928,46.6850311,45226,15
"USA. Texas. Culberson County, section in Delaware Mts north of Van Horn quadrangle, Sierra Diablo, west TX.  3892491","Van Horn, Culberson County, Texas, United States, 79855",-104.8307698,31.0398558,-104.867937,-104.78595,31.02325699999999,31.0671219,3997,16
"USA. Texas. Culberson County, section in Delaware Mts north of Van Horn quadrangle, Sierra Diablo, west TX.  3892491","Delaware Mountains, Culberson County, Texas, United States",-104.6004914,31.5001265,-104.6018403802915,-104.5991424197085,31.4987775197085,31.5014754802915,197,16
"USA. Texas. Culberson County, section in Delaware Mts north of Van Horn quadrangle, Sierra Diablo, west TX.  3892491","Sierra Diablo, Culberson County, Texas, United States, 79855",-104.9049435,31.4229024,-104.9062924802915,-104.9035945197085,31.4215534197085,31.4242513802915,197,16
"USA. Texas. Hudspeth County. cgl bed, Finlay Dome, S of Fossil Hill, N of Finlay, Finlay Mountains, west TX.  3892511  , Hudspeth County","Finlay, Hudspeth County, Texas, United States, 79851",-105.629444,31.258611,-105.6307929802915,-105.6280950197085,31.2572620197085,31.2599599802915,197,17
"USA. Texas. Hudspeth County. cgl bed, Finlay Dome, S of Fossil Hill, N of Finlay, Finlay Mountains, west TX.  3892511  , Hudspeth County","Finlay Mountains, Hudspeth County, Texas, United States, 79851",-105.5874606,31.3556794,-105.5888095802915,-105.5861116197085,31.3543304197085,31.3570283802915,197,17
"USA. Texas. Hudspeth County. Fossil Hill, Finlay Dome, N of Finlay, Finaly Mountains, west TX.  3892513  , Hudspeth County","Finlay, Hudspeth County, Texas, United States, 79851",-105.629444,31.258611,-105.6307929802915,-105.6280950197085,31.2572620197085,31.2599599802915,197,18
"USA. Texas. Hudspeth County, 2 mi NW of hill 5700, near W border of Cerro Alto quadrangle, Hueco Mountains, west TX.","Hudspeth County, Texas, United States",-105.5943388,31.5707433,-105.9980119,-104.9071221,30.6292941,32.002377,80790,19
"USA. Texas. Hudspeth County, 2 mi NW of hill 5700, near W border of Cerro Alto quadrangle, Hueco Mountains, west TX.","Hueco Mountains, El Paso County, Texas, United States, 79938",-106.0185875,31.9531621,-106.0199364802915,-106.0172385197085,31.9518131197085,31.9545110802915,197,19
"USA. Texas. Hudspeth County, 2 mi NW of hill 5700, near W border of Cerro Alto quadrangle, Hueco Mountains, west TX.","West, McLennan County, Texas, United States, 76691",-97.0909551,31.8023057,-97.1072011,-97.077309,31.78610399999999,31.8243631,2365,19
"USA. Texas. Hudspeth County, southwest of Neville Mountain, Hueco Mountains.","Hudspeth County, Texas, United States",-105.5943388,31.5707433,-105.9980119,-104.9071221,30.6292941,32.002377,80790,20
"USA. Texas. Hudspeth County, southwest of Neville Mountain, Hueco Mountains.","Hueco Mountains, El Paso County, Texas, United States, 79938",-106.0185875,31.9531621,-106.0199364802915,-106.0172385197085,31.9518131197085,31.9545110802915,197,20
"USA. Texas. El Paso County. 2 mi SW of the SW corner of Cerro Alto, Hueco Mountains, west TX. ","Cerro Alto, El Paso County, Texas, United States, 79938",-106.063609,31.857273,-106.0647239302915,-106.0620259697085,31.855705,31.8588155,203,21
"USA. Texas. El Paso County. 2 mi SW of the SW corner of Cerro Alto, Hueco Mountains, west TX. ","Hueco Mountains, El Paso County, Texas, United States, 79938",-106.0185875,31.9531621,-106.0199364802915,-106.0172385197085,31.9518131197085,31.9545110802915,197,21
"USA. Texas. El Paso County. 2 mi SW of the SW corner of Cerro Alto, Hueco Mountains, west TX. ","Southwestern Drive, Northwest El Paso, El Paso, El Paso County, Texas, United States, 79912",-106.5741553,31.8618868,-106.5746124,-106.5701927,31.8532863,31.8721554,955,21
"USA, Texas, El Paso County, 2 miles SSW of the SE corner of Cerro Alto, Hueco Mountains, west Texas.","Cerro Alto, El Paso County, Texas, United States, 79938",-106.063609,31.857273,-106.0647239302915,-106.0620259697085,31.855705,31.8588155,203,22
"USA, Texas, El Paso County, 2 miles SSW of the SE corner of Cerro Alto, Hueco Mountains, west Texas.","Hueco Mountains, El Paso County, Texas, United States, 79938",-106.0185875,31.9531621,-106.0199364802915,-106.0172385197085,31.9518131197085,31.9545110802915,197,22
"USA, Texas, El Paso County, 2 miles SSW of the SE corner of Cerro Alto, Hueco Mountains, west Texas.","West Texas, El Paso, El Paso County, Texas, United States, 79901",-106.4917179,31.75355119999999,-106.4930668802915,-106.4903689197085,31.75220221970849,31.75490018029149,197,22
"USA. Texas. Hudspeth County. Hess, 1.7 mi S of the summit of Cerro Alto, Hueco Mountains, west TX.","Hudspeth County, Texas, United States",-105.5943388,31.5707433,-105.9980119,-104.9071221,30.6292941,32.002377,80790,23
"USA. Texas. Hudspeth County. Hess, 1.7 mi S of the summit of Cerro Alto, Hueco Mountains, west TX.","West, McLennan County, Texas, United States, 76691",-97.0909551,31.8023057,-97.1072011,-97.077309,31.78610399999999,31.8243631,2365,23
"USA, Texas, Hudspeth County, Hueco Mountains, NW Cerro Alto quadrangle.","Hudspeth County, Texas, United States",-105.5943388,31.5707433,-105.9980119,-104.9071221,30.6292941,32.002377,80790,24
"USA, Texas, Hudspeth County, Hueco Mountains, NW Cerro Alto quadrangle.","San Isidro/NW, Laredo, Webb County, Texas, United States, 78045",-99.4788158,27.6115873,-99.4800810302915,-99.4773830697085,27.6102835197085,27.6129814802915,191,24
"USA. Texas. El Paso County, 3.4 mi W and a little S of Hueco Tanks, Hueco Mountains, west TX.","Hueco Mountain Road & Hueco Tanks Road, El Paso County, Texas, United States, 79938",-106.0482911,31.9021094,-106.0496400802915,-106.0469421197085,31.9007604197085,31.9034583802915,197,25
"USA. Texas. El Paso County. Hueco Mountains. basal lower Wolfcamp, .8 mi W of point halfway between O and U of Mountains, El Paso quadrangle, Hueco Mountains, west TX.  3892405  , El Paso County","Hueco Mountains, El Paso County, Texas, United States, 79938",-106.0185875,31.9531621,-106.0199364802915,-106.0172385197085,31.9518131197085,31.9545110802915,197,26
"USA. Texas. El Paso County. Hueco Mountains. basal lower Wolfcamp, .8 mi W of point halfway between O and U of Mountains, El Paso quadrangle, Hueco Mountains, west TX.  3892405  , El Paso County","El Paso, El Paso County, Texas, United States",-106.4850217,31.7618778,-106.6359339,-106.199202,31.62247289999999,32.0016309,21063,26
"USA, Texas, El Paso County, east of the hills north of Hueco Tanks Road, west of Hueco Tanks, Hueco Mountains, west Texas.","Hueco Tanks State Park & Historic Site, 6900, Hueco Tanks Road No. 1, El Paso, El Paso County, Texas, United States, 79938",-106.0434449,31.9163705,-106.0445637302915,-106.0418657697085,31.9163705,31.9272691,106,27
"USA, Texas, El Paso County, east of the hills north of Hueco Tanks Road, west of Hueco Tanks, Hueco Mountains, west Texas.","CAMPING Hueco Tanks, 6011, Hueco Tanks Road, El Paso, El Paso County, Texas, United States, 79938",-106.0489323,31.8929593,-106.0499283302915,-106.0472303697085,31.8916137197085,31.89431168029149,176,27
"USA, Texas, El Paso County, east of the hills north of Hueco Tanks Road, west of Hueco Tanks, Hueco Mountains, west Texas.","Hueco Mountains, El Paso County, Texas, United States, 79938",-106.0185875,31.9531621,-106.0199364802915,-106.0172385197085,31.9518131197085,31.9545110802915,197,27
"USA, Texas, El Paso County, east of the hills north of Hueco Tanks Road, west of Hueco Tanks, Hueco Mountains, west Texas.","West Texas, El Paso, El Paso County, Texas, United States, 79901",-106.4917179,31.75355119999999,-106.4930668802915,-106.4903689197085,31.75220221970849,31.75490018029149,197,27
"USA. Texas. El Paso County. Hueco Tanks. 4 mi SW of Hueco Tanks, Hueco Mountains.","Hueco Tanks State Park & Historic Site, 6900, Hueco Tanks Road No. 1, El Paso, El Paso County, Texas, United States, 79938",-106.0434449,31.9163705,-106.0445637302915,-106.0418657697085,31.9163705,31.9272691,106,28
"USA. Texas. El Paso County. Hueco Tanks. 4 mi SW of Hueco Tanks, Hueco Mountains.","Hueco Mountain Road & Hueco Tanks Road, El Paso County, Texas, United States, 79938",-106.0482911,31.9021094,-106.0496400802915,-106.0469421197085,31.9007604197085,31.9034583802915,197,28
"USA, Texas, West TX 3892","West, McLennan County, Texas, United States, 76691",-97.0909551,31.8023057,-97.1072011,-97.077309,31.78610399999999,31.8243631,2365,29
"USA. Texas. Culberson County, north of Van Horn, Sierra Diablo, west TX. 3892490","Van Horn, Culberson County, Texas, United States, 79855",-104.8307698,31.0398558,-104.867937,-104.78595,31.02325699999999,31.0671219,3997,30
"USA. Texas. Culberson County, north of Van Horn, Sierra Diablo, west TX. 3892490","Sierra Diablo, Culberson County, Texas, United States, 79855",-104.9049435,31.4229024,-104.9062924802915,-104.9035945197085,31.4215534197085,31.4242513802915,197,30
"USA. Texas. Culberson County, north of Van Horn, Sierra Diablo, west TX. 3892490","West, McLennan County, Texas, United States, 76691",-97.0909551,31.8023057,-97.1072011,-97.077309,31.78610399999999,31.8243631,2365,30
"USA. Texas. Hudspeth County.","Hudspeth County, Texas, United States",-105.5943388,31.5707433,-105.9980119,-104.9071221,30.6292941,32.002377,80790,31
"USA, Texas, near Bone Spring, Guadalupe Mountains, west Texas. 3892221","West Texas, El Paso, El Paso County, Texas, United States, 79901",-106.4917179,31.75355119999999,-106.4930668802915,-106.4903689197085,31.75220221970849,31.75490018029149,197,32
"USA, Texas, west of Guadalupe Point in hills north of highway from Van Horn to Carlsbad, Guadalupe Mountains.","Van Horn, Culberson County, Texas, United States, 79855",-104.8307698,31.0398558,-104.867937,-104.78595,31.02325699999999,31.0671219,3997,33
"USA, Texas, west of Guadalupe Point in hills north of highway from Van Horn to Carlsbad, Guadalupe Mountains.","Carlsbad, Eddy County, New Mexico, United States, 88220",-104.2289925,32.4203395,-104.2896331,-104.134322,32.29829,32.476542,10867,33
"USA, Texas, west of Guadalupe Point in hills north of highway from Van Horn to Carlsbad, Guadalupe Mountains.","Carlsbad, San Diego County, California, United States",-117.3411165,33.1644491,-117.3597159,-117.2159071,33.060519,33.1825681,11657,33
"USA, Texas, Pecos County, Glass Mountains, Section H, between a'  m' upper part","Glass Mountains, Pecos County, Texas, United States, 79735",-103.1090536,30.4354441,-103.1104025802915,-103.1077046197085,30.4340951197085,30.4367930802915,198,34
"USA, Texas, El Paso County, section W of Powwow Canyon, Hueco Mountains, west TX. 3892377A","West Texas, El Paso, El Paso County, Texas, United States, 79901",-106.4917179,31.75355119999999,-106.4930668802915,-106.4903689197085,31.75220221970849,31.75490018029149,197,35
"USA, Texas, El Paso County, section W of Powwow Canyon, Hueco Mountains, west TX. 3892377A","Hueco Mountains, El Paso County, Texas, United States, 79938",-106.0185875,31.9531621,-106.0199364802915,-106.0172385197085,31.9518131197085,31.9545110802915,197,35
"USA, Texas, El Paso County, section W of Powwow Canyon, Hueco Mountains, west TX. 3892377A","Pow Wow Canyon, Butterfield, El Paso County, Texas, United States, 79938",-106.0936246,31.8322491,-106.0964432,-106.0890023,31.8308765697085,31.8335745302915,307,35
"Russia, Charaschowa, Moscow.","Moscow, Moscow, Moscow, Russia",37.6173,55.755826,36.8032249,37.9678221,55.142591,56.0214609,36821,36
"Kolodrobka, Podolia, Soviet Union.",NA,NA,NA,NA,NA,NA,NA,NA,37
"New Zealand, Auckland Province, Cape Rodney.","Cape Rodney, Auckland, New Zealand, 0985",174.8166667,-36.2833333,174.8153177197085,174.8180156802915,-36.28468228029149,-36.28198431970849,193,38
"North America, Canada West.","Canada",-106.346771,56.130366,-142,-50,41.6765559,83.6381,3018372,39
"USA. Texas. 0.5 mi N of Hueco Inn, Hueco Mountains.","Hueco Mountains, El Paso County, Texas, United States, 79938",-106.0185875,31.9531621,-106.0199364802915,-106.0172385197085,31.9518131197085,31.9545110802915,197,40
"USA. Texas. Ward County. tubb pay, middle Leonard, Sealy-Smith well 2 at 5582 ft, NE of Monahans. , Ward County","Monahans, Ward County, Texas, United States",-102.8926536,31.5942991,-103.165079,-102.8597751,31.563976,31.695715,11670,41
"USA. Texas. Western Texas.","West Texas, El Paso, El Paso County, Texas, United States, 79901",-106.4917179,31.75355119999999,-106.4930668802915,-106.4903689197085,31.75220221970849,31.75490018029149,197,42
"USA. Texas. Hudspeth County. SW corner of Neville Mt, Hueco Mountains, west TX.","Hudspeth County, Texas, United States",-105.5943388,31.5707433,-105.9980119,-104.9071221,30.6292941,32.002377,80790,43
"USA. Texas. Hudspeth County. SW corner of Neville Mt, Hueco Mountains, west TX.","West, McLennan County, Texas, United States, 76691",-97.0909551,31.8023057,-97.1072011,-97.077309,31.78610399999999,31.8243631,2365,43
"USA, Texas, Hudspeth County, Brackett Draw, Sierra Diablo, West Texas.","West Texas, Sierra Blanca, Hudspeth County, Texas, United States, 79851",-105.3652945,31.1786322,-105.3731324,-105.357395,31.1765651,31.1813366,782,44
"USA, Texas, Hudspeth County, Brackett Draw, Sierra Diablo, West Texas.","Sierra Diablo, Culberson County, Texas, United States, 79855",-104.9049435,31.4229024,-104.9062924802915,-104.9035945197085,31.4215534197085,31.4242513802915,197,44
"USA. Texas. Brewster County. Glass Mountains. layer of ls in sh, 1 mi NW of station 3, sheet 2, stations 21 and 22, Glass Mountains, west TX.  T091  Early Permian. Wolfcampian. Wolfcamp Fm., Brewster County","Brewster County, Texas, United States",-103.3587288,29.6629938,-103.80068,-102.3208541,28.9713364,30.66593889999999,87866,45
"USA. Texas. Brewster County. Glass Mountains. layer of ls in sh, 1 mi NW of station 3, sheet 2, stations 21 and 22, Glass Mountains, west TX.  T091  Early Permian. Wolfcampian. Wolfcamp Fm., Brewster County","Glass Mountains, Pecos County, Texas, United States, 79735",-103.1090536,30.4354441,-103.1104025802915,-103.1077046197085,30.4340951197085,30.4367930802915,198,45
"USA. Texas. Brewster County. Glass Mountains. layer of ls in sh, 1 mi NW of station 3, sheet 2, stations 21 and 22, Glass Mountains, west TX.  T091  Early Permian. Wolfcampian. Wolfcamp Fm., Brewster County","West, McLennan County, Texas, United States, 76691",-97.0909551,31.8023057,-97.1072011,-97.077309,31.78610399999999,31.8243631,2365,45
"USA. Texas. Brewster County. Glass Mountains. top of ridge 2.5 mi NE of Wedin's oil derrick, and other descriptions of the same locality, Glass Mountains, west TX.  T009  Early Permian. Leonardian. Leonard Fm., Brewster County","Brewster County, Texas, United States",-103.3587288,29.6629938,-103.80068,-102.3208541,28.9713364,30.66593889999999,87866,46
"USA. Texas. Brewster County. Glass Mountains. top of ridge 2.5 mi NE of Wedin's oil derrick, and other descriptions of the same locality, Glass Mountains, west TX.  T009  Early Permian. Leonardian. Leonard Fm., Brewster County","West, McLennan County, Texas, United States, 76691",-97.0909551,31.8023057,-97.1072011,-97.077309,31.78610399999999,31.8243631,2365,46
"USA, Central Texas.","Central Texas, Texas, United States",-97.6653991,30.2854944,-99.30401490000001,-96.596862,29.752443800000002,31.8630791,168755,47
"North America, probably from Ohio.","Ohio, United States",-82.90712300000001,40.4172871,-84.8203051,-80.518705,38.403423,42.3233687,277724,48
"USA. Texas. between stations 60 and 62, Green Canyon, Glass Mountains, west TX.  TA  Permian. Word Fm.","Highway 60, Texas, United States",-101.8302895,35.2220809,-106.5714377,-97.8722287,34.38868149999996,36.50118130000003,384597,49
"USA. Texas. between stations 60 and 62, Green Canyon, Glass Mountains, west TX.  TA  Permian. Word Fm.","West, McLennan County, Texas, United States, 76691",-97.0909551,31.8023057,-97.1072011,-97.077309,31.78610399999999,31.8243631,2365,49
"USA. Catskill.","Catskill, Catskill, Greene County, New York, United States, 12414",-73.8645734,42.2173102,-73.889574,-73.849203,42.195633,42.2277771,1721,50
"USA. Texas. El Paso County. Canyon-Cisco, northern section. 3892349","Canyon Lane, El Paso County, Texas, United States, 79938",-106.065671,31.8213312,-106.0670660802915,-106.0643681197085,31.8196637197085,31.8223616802915,168,51
"USA. Texas. El Paso County. Hueco Mt. Canyon-Cisco, northern section.","Hueco\Montana, Central El Paso, El Paso, El Paso County, Texas, United States, 79903",-106.456065,31.78400599999999,-106.4574142302915,-106.4547162697085,31.7826573697085,31.7853553302915,197,52
"USA. Nebraska. Seward County. Milford.","Milford, Precinct O, Seward County, Nebraska, United States, 68405",-97.051721,40.7742171,-97.06613809999999,-97.0398041,40.7634769,40.781731,1307,53
"USA, Wyoming, Niobrara County, Lance Creek.","Lance Creek, Niobrara County, Wyoming, United States",-104.6419032,43.03246790000001,-104.7758499,-104.567895,42.99125,43.094254,9136,54
"USA. Texas. West Texas. Georgetown.","Georgetown, Williamson County, Texas, United States",-97.6779842,30.6332618,-97.832725,-97.585174,30.570766,30.7525309,15934,55
"USA. Texas. West Texas. Georgetown.","West Texas, El Paso, El Paso County, Texas, United States, 79901",-106.4917179,31.75355119999999,-106.4930668802915,-106.4903689197085,31.75220221970849,31.75490018029149,197,55
"USA. Texas. Tarrant County. Fort Worth. 10 mi S of Fort Worth.","Fort Worth Trail, Fort Worth, Tarrant County, Texas, United States, 76102",-97.3418311,32.7526272,-97.34329953029149,-97.34060156970848,32.7512697697085,32.7539677302915,188,56
"USA. Texas. Brewster County. 0.5 mi N of hill 5611, Hess Canyon, Glass Mountains, west TX.","Hess Canyon, Brewster County, Texas, United States, 79842",-103.2071162,30.3337771,-103.2084651802915,-103.2057672197085,30.3324281197085,30.3351260802915,198,57
"USA. Texas. Brewster County. 0.5 mi N of hill 5611, Hess Canyon, Glass Mountains, west TX.","Hess Canyon, Brewster County, Texas, United States, 79831",-103.2004472,30.4473858,-103.2017961802915,-103.1990982197085,30.4460368197085,30.4487347802915,198,57
"USA. South Dakota. Ziebach County. Bluffs south of the Moreau River, between the forks of the county roads leading northwest to the village and north to the bridge, about 1 mile southeast of Thunder Butte village.","Thunder Butte, North Ziebach, Ziebach County, South Dakota, United States, 57623",-101.6701522,45.2127556,-101.6715011802915,-101.6688032197085,45.21140661970851,45.2141045802915,184,103
"USA. South Dakota. Dewey County. Moreau River, just below the top of the first prominent spur 0.2 miles northwest of the southern part of location C0088, and 2 miles southwest of Green Grass.","Moreau River, South Dakota, United States",-101.7472359340746,45.23776581615543,-102.8710585,-100.6234133,45.1081969,45.36733479999999,89310,59
"USA. South Dakota. Dewey County. 450 ft N of loc C0242, at SW corner of Long's Ridge, 7.5 mi W of Whitehorse.","Dewey County, South Dakota, United States",-100.7110465,45.2486497,-101.5010729,-100.257286,44.724153,45.47304099999999,43427,60
"USA. South Dakota. Dewey County. 450 ft N of loc C0242, at SW corner of Long's Ridge, 7.5 mi W of Whitehorse.","Whitehorse, Yukon, Canada",-135.0522761,60.7197137,-135.273927,-134.8825132,60.55838049999999,60.84852589999999,17074,60
"USA. South Dakota. Corson County. float, conc., steep slopes on both sides of tributary gully, 0-.3 mi S of the Grand River, and 4 mi NNE of Miscol.  253, WAC21f, WAC21  , Corson County","Miscol, West Corson, Corson County, South Dakota, United States, 57633",-101.1623621,45.6769391,-101.1637110802915,-101.1610131197085,45.6755901197085,45.6782880802915,183,61
"USA. South Dakota. Corson County. conc. 13, SW-facing bluff on small knob .1 mi S of wooded gully, .1 mi W of N end of NW-trending ridge, 1.5 mi E of Grand River, 7.2 mi E of Miscol.","Corson County, South Dakota, United States",-101.690976,45.76233329999999,-102.0009831,-100.3081781,45.4722121,45.944845,40304,62
"USA. South Dakota. Corson County. conc. 13, SW-facing bluff on small knob .1 mi S of wooded gully, .1 mi W of N end of NW-trending ridge, 1.5 mi E of Grand River, 7.2 mi E of Miscol.","Michigan, United States",-85.60236429999999,44.3148443,-90.41839189999999,-82.122805,41.696118,48.3056109,488554,62
"USA. South Dakota. Ziebach County. Bluffs south of the Moreau River, between the forks of the county roads leading northwest to the village and north to the bridge, about 1 mile southeast of Thunder Butte village.","Thunder Butte, North Ziebach, Ziebach County, South Dakota, United States, 57623",-101.6701522,45.2127556,-101.6715011802915,-101.6688032197085,45.21140661970851,45.2141045802915,184,103
"USA. South Dakota. Corson County. SW-facing bluff on small knob 0.1 mi S of wooded gully, 0.1 mi W of the N end of NW-trending ridge, 1.5 mi E of Grand River, 7.2 mi E of Miscol.","Miscol, West Corson, Corson County, South Dakota, United States, 57633",-101.1623621,45.6769391,-101.1637110802915,-101.1610131197085,45.6755901197085,45.6782880802915,183,64
"USA. South Dakota. Corson County. Exposure on the west side of a northwest-trending spur, 0.1 mile south of a wooded gully, 1.5 miles east of the Grand River, and 7.4 miles east of Miscol.","Miscol, West Corson, Corson County, South Dakota, United States, 57633",-101.1623621,45.6769391,-101.1637110802915,-101.1610131197085,45.6755901197085,45.6782880802915,183,65
"USA. South Dakota. Ziebach County. Bluffs south of the Moreau River, between the forks of the county roads leading northwest to the village and north to the bridge, about 1 mile southeast of Thunder Butte village.","Thunder Butte, North Ziebach, Ziebach County, South Dakota, United States, 57623",-101.6701522,45.2127556,-101.6715011802915,-101.6688032197085,45.21140661970851,45.2141045802915,184,103
"USA. South Dakota. Ziebach County. Upper slopes, about 15 ft above a large layer, bluffs south of the Moreau River, between the forks of the county roads leading northwest to the village and north to the bridge, and about 1 mile southeast of Thunder Butte village.","Thunder Butte, North Ziebach, Ziebach County, South Dakota, United States, 57623",-101.6701522,45.2127556,-101.6715011802915,-101.6688032197085,45.21140661970851,45.2141045802915,184,67
"USA. South Dakota. Corson County. Exposures along the south side of Grand River, just east of a small tributary gulley, and 1.2 miles ENE of Petersen ranch house, 4.5 miles ENE of Miscol.","Miscol, West Corson, Corson County, South Dakota, United States, 57633",-101.1623621,45.6769391,-101.1637110802915,-101.1610131197085,45.6755901197085,45.6782880802915,183,68
"USA. South Dakota. Corson County. SW-facing bluff on small knob 0.1 mi S of wooded gully, 0.1 mi W of N end of NW-trending ridge, 1.5 mi E of Grand River, 7.2 mi E of Miscol.","Miscol, West Corson, Corson County, South Dakota, United States, 57633",-101.1623621,45.6769391,-101.1637110802915,-101.1610131197085,45.6755901197085,45.6782880802915,183,69
"USA. South Dakota. Corson County. Float, conc., north end of site near creek level, tributary creek on north side of High Bank Creek, 11 miles southwest of Little Eagle.","Corson County, South Dakota, United States",-101.690976,45.76233329999999,-102.0009831,-100.3081781,45.4722121,45.944845,40304,70
"USA. South Dakota. Corson County. Float, conc., north end of site near creek level, tributary creek on north side of High Bank Creek, 11 miles southwest of Little Eagle.","Corson County, South Dakota, United States",-101.690976,45.76233329999999,-102.0009831,-100.3081781,45.4722121,45.944845,40304,70
"USA, South Dakota, Corson County, exposures along south to southeast-trending spur 0.2-0.7 miles west of McLaughlin-Little Eagle Road, and 3 miles north-northwest of Little Eagle.","Corson County, South Dakota, United States",-101.690976,45.76233329999999,-102.0009831,-100.3081781,45.4722121,45.944845,40304,71
"USA. South Dakota. Ziebach County. Gravel pit on south side of Moreau River just northwest of SD Route 65, and 6.8 miles east of Thunder Butte village.","Moreau River, South Dakota, United States",-101.7472359340746,45.23776581615543,-102.8710585,-100.6234133,45.1081969,45.36733479999999,89310,72
"USA, South Dakota, Dewey County. Around the south end of a ridge at the southwest corner of Long's Ridge, and 7.3 miles west of Whitehorse.","Whitehorse, Yukon, Canada",-135.0522761,60.7197137,-135.273927,-134.8825132,60.55838049999999,60.84852589999999,17074,73
"USA, South Dakota, Dewey County. Around the south end of a ridge at the southwest corner of Long's Ridge, and 7.3 miles west of Whitehorse.","Longs, Horry County, South Carolina, United States, 29568",-78.73307369999999,33.9385051,-78.73442268029149,-78.73172471970848,33.9371561197085,33.9398540802915,195,73
"USA, South Dakota, Dewey County. Around the south end of a ridge at the southwest corner of Long's Ridge, and 7.3 miles west of Whitehorse.","Dewey County, South Dakota, United States",-100.7110465,45.2486497,-101.5010729,-100.257286,44.724153,45.47304099999999,43427,73
"USA. Texas. Parker County. White Settlement Road, 15 mi W of Fort Worth.","White Settlement Road, Parker County, Texas, United States",-97.6424762,32.7870947,-97.73228200000001,-97.5441879,32.77354059999998,32.78901460000003,8547,74
"USA, Montana, Custer County","Custer County, Montana, United States",-105.6225,46.2160876,-106.1917529,-104.732666,45.786963,46.860823,64957,75
"USA, Texas, Travis County, Austin, 200 yd S of lowwater bridge, E Austin Dam","Tom Miller Dam, Austin, Travis County, Texas, United States, 78746",-97.7862873,30.2940748,-97.78829168029151,-97.7855937197085,30.2925652197085,30.2952631802915,148,76
"USA, Texas, Travis County, Austin, 200 yd S of lowwater bridge, E Austin Dam","440, East Saint Elmo Road, South Austin, Austin, Travis County, Texas, United States, 78745",-97.7613906,30.2171535,-97.76264673029151,-97.75994876970849,30.2157613697085,30.2184593302915,196,76
"USA, Wyoming, Weston County, Newcastle, 8 mi W and 8 mi SW of Newcastle","Newcastle, Weston County, Wyoming, United States, 82701",-104.2049408,43.8547003,-104.2699491,-104.172,43.840154,43.880623,3912,77
"USA. South Dakota. Ziebach County. Bluffs south of the Moreau River, between the forks of the county roads leading northwest to the village and north to the bridge, about 1 mile southeast of Thunder Butte village.","Thunder Butte, North Ziebach, Ziebach County, South Dakota, United States, 57623",-101.6701522,45.2127556,-101.6715011802915,-101.6688032197085,45.21140661970851,45.2141045802915,184,103
"USA, South Dakota, Corson County, section H, southwest-facing bluffs at the west end of the divide, west of the trail, about 1 mile east of the Grand River, and 6 miles southeast of Bullhead.","Corson County, South Dakota, United States",-101.690976,45.76233329999999,-102.0009831,-100.3081781,45.4722121,45.944845,40304,79
"USA. South Dakota. Ziebach County. Bluffs south of the Moreau River, between the forks of the county roads leading northwest to the village and north to the bridge, about 1 mile southeast of Thunder Butte village.","Thunder Butte, North Ziebach, Ziebach County, South Dakota, United States, 57623",-101.6701522,45.2127556,-101.6715011802915,-101.6688032197085,45.21140661970851,45.2141045802915,184,103
"USA. South Dakota. Ziebach County. Bluffs south of the Moreau River, between the forks of the county roads leading northwest to the village and north to the bridge, about 1 mile southeast of Thunder Butte village.","Thunder Butte, North Ziebach, Ziebach County, South Dakota, United States, 57623",-101.6701522,45.2127556,-101.6715011802915,-101.6688032197085,45.21140661970851,45.2141045802915,184,103
"USA. South Dakota. Corson County. Exposure along bluffs south of Grand River, along west side of tributary gully, 1.2 miles east-northeast of Petersen ranch house, and 4.5 miles east-northeast of Miscol.","Miscol, West Corson, Corson County, South Dakota, United States, 57633",-101.1623621,45.6769391,-101.1637110802915,-101.1610131197085,45.6755901197085,45.6782880802915,183,82
"USA. South Dakota. Dewey County. Moreau River, top of the first prominent spur 0.2 mi NW of the south part of location C0088, and 2 mi SW of Green Grass.","Moreau River, South Dakota, United States",-101.7472359340746,45.23776581615543,-102.8710585,-100.6234133,45.1081969,45.36733479999999,89310,83
"USA. South Dakota. Ziebach County. Bluffs south of the Moreau River, between the forks of the county roads leading northwest to the village and north to the bridge, about 1 mile southeast of Thunder Butte village.","Thunder Butte, North Ziebach, Ziebach County, South Dakota, United States, 57623",-101.6701522,45.2127556,-101.6715011802915,-101.6688032197085,45.21140661970851,45.2141045802915,184,103
"USA. South Dakota. Corson County. Grand River. Drepanochilus concs., east end of southwest-facing bluffs of spur trending southeast, 3 miles west-northwest of Little Eagle.","Grand River, East Corson, Corson County, South Dakota, United States, 57601",-100.471525,45.57693949999999,-100.4728739802915,-100.4701760197085,45.57559051970849,45.57828848029149,183,85
"USA. South Dakota. Campbell County. Pollock. Small faces at the top of the escarpment east of the Missouri River, 11.5 miles south of Pollock.","Pollock, North Campbell, Campbell County, South Dakota, United States, 57648",-100.2884568,45.9013832,-100.296559,-100.275802,45.8970709,45.904491,791,86
"USA. South Dakota. Corson County. Steep slopes on both sides of a tributary gully, 0.3 miles south of the Grand River, and 4 miles north-northeast of Miscol.","Miscol, West Corson, Corson County, South Dakota, United States, 57633",-101.1623621,45.6769391,-101.1637110802915,-101.1610131197085,45.6755901197085,45.6782880802915,183,87
"USA, South Dakota, Corson County, steep slopes on both sides of a tributary gully, 0 to 0.3 miles south of the Grand River, and 4 miles north-northeast of Miscol.","Miscol, West Corson, Corson County, South Dakota, United States, 57633",-101.1623621,45.6769391,-101.1637110802915,-101.1610131197085,45.6755901197085,45.6782880802915,183,88
"USA, South Dakota, Corson County, upper surface of knob on steep slopes of tributary gully, 0.3 mi south of the Grand River, 4 mi north-northeast of Miscol.","Miscol, West Corson, Corson County, South Dakota, United States, 57633",-101.1623621,45.6769391,-101.1637110802915,-101.1610131197085,45.6755901197085,45.6782880802915,183,89
"USA, South Dakota, Corson County, Grand River, small outcrops on shoulders of spurs east and west of main gully draining southwest quarter of section 24, 9 miles west of Little Eagle.","Grand River, East Corson, Corson County, South Dakota, United States, 57601",-100.471525,45.57693949999999,-100.4728739802915,-100.4701760197085,45.57559051970849,45.57828848029149,183,90
"USA. South Dakota. Corson County. In place in slump block at south end of cut, steep slopes on both sides of tributary gully, 0-.3 mi south of the Grand River, and 4 mi north-northeast of Miscol.","Miscol, West Corson, Corson County, South Dakota, United States, 57633",-101.1623621,45.6769391,-101.1637110802915,-101.1610131197085,45.6755901197085,45.6782880802915,183,91
"USA. South Dakota. Corson County. In place in slump block at south end of cut, steep slopes on both sides of tributary gully, 0-.3 mi south of the Grand River, and 4 mi north-northeast of Miscol.","Michigan, United States",-85.60236429999999,44.3148443,-90.41839189999999,-82.122805,41.696118,48.3056109,488554,91
"USA. South Dakota. Corson County. Steep slopes on both sides of a tributary gully, 0-.3 mi S of the Grand River, and 4 mi NNE of Miscol.","Miscol, West Corson, Corson County, South Dakota, United States, 57633",-101.1623621,45.6769391,-101.1637110802915,-101.1610131197085,45.6755901197085,45.6782880802915,183,92
"USA. South Dakota. Corson County. Exposures along south to southeast-trending spur 0.2-0.7 miles west of McLaughlin-Little Eagle road, and 3 miles north-northwest of Little Eagle.","Corson County, South Dakota, United States",-101.690976,45.76233329999999,-102.0009831,-100.3081781,45.4722121,45.944845,40304,93
"USA, Texas, Tarrant County, Fort Worth, excavation for building.","5265, Shelby Road, Fort Worth, Tarrant County, Texas, United States, 76140, 7729",-97.24839100000001,32.612282,-97.24973193029152,-97.24703396970851,32.60995886970851,32.61265683029151,134,94
"USA. Texas. Tarrant County. Fort Worth. Creek bed 1 mile east of Texas Christian University.","2800, South University Drive, Fort Worth, Tarrant County, Texas, United States, 76109",-97.36280409999999,32.7078531,-97.3700623,-97.35354389999999,32.7060848,32.7116464,708,95
"USA, Texas, Grayson County, 4 mi N of Denison.","Denison, Grayson County, Texas, United States",-96.53665799999999,33.7556593,-96.68125289999999,-96.49387,33.694649,33.857308,11951,96
"USA. Texas. Denton County. Justin. Creek, 5 mi W of Justin.","Justin, Denton County, Texas, United States, 76247",-97.29612859999999,33.0848442,-97.356206,-97.28193,33.0643329,33.106119,2706,97
"USA. Texas. McLennan County. McGregor. 2 mi S of McGregor.","McGregor, McLennan County, Texas, United States",-97.4091792,31.4440557,-97.50339489999999,-97.293953,31.377453,31.4965421,11610,98
"USA, South Dakota, Dewey County, Eagle Butte, from excavations for Indian Bureau building, town of Eagle Butte village.","Eagle Butte, North Dewey, Ziebach County, South Dakota, United States, 57625",-101.2224805,44.9886537,-101.269331,-101.2107239,44.9790949,45.0099921,2546,99
"USA. Wyoming. Weston County. About 10 mi SW of Newcastle.","Newcastle, Weston County, Wyoming, United States, 82701",-104.2049408,43.8547003,-104.2699491,-104.172,43.840154,43.880623,3912,100
"USA, Nebraska, Sarpy County, Meadow, Kiewitz Quarry","Sarpy County, Nebraska, United States",-96.19513200000002,41.0744042,-96.339805,-95.841611,40.994308,41.190991,15071,164
"USA. Nebraska. Sarpy County. Meadow Station. Kiewitz Quarry.","Meadow Lane, La Vista, La Vista Precinct, Sarpy County, Nebraska, United States, 68128",-96.0291432,41.1775964,-96.0308654,-96.0261939,41.1768894197085,41.17958738029149,164,102
"USA. South Dakota. Ziebach County. Bluffs south of the Moreau River, between the forks of the county roads leading northwest to the village and north to the bridge, about 1 mile southeast of Thunder Butte village.","Thunder Butte, North Ziebach, Ziebach County, South Dakota, United States, 57623",-101.6701522,45.2127556,-101.6715011802915,-101.6688032197085,45.21140661970851,45.2141045802915,184,103
"USA, South Dakota, Stanley County, Fort Pierre, south of the Missouri River","Fort Pierre, South Stanley, Stanley County, South Dakota, United States, 57532",-100.3737447,44.3535933,-100.400762,-100.3588411,44.3447721,44.389516,2367,104
"USA. Texas. Travis County. Austin. Quarry west of Austin.","Quarry, Austin, Travis County, Texas, United States, 78759",-97.74302829999999,30.40335229999999,-97.74560190000001,-97.73656799999999,30.398639,30.4070931,578,105
"USA. Texas. Travis County. Austin. Quarry west of Austin.","Old West Austin, Austin, Travis County, Texas, United States",-97.7618881,30.2731462,-97.7712265,-97.7505807,30.2663611,30.2858908,1172,105
"USA. Texas. Travis County. West of Austin.","Old West Austin, Austin, Travis County, Texas, United States",-97.7618881,30.2731462,-97.7712265,-97.7505807,30.2663611,30.2858908,1172,106
"USA. Texas. Travis County. Georgetown. West of Austin.","Old West Austin, Austin, Travis County, Texas, United States",-97.7618881,30.2731462,-97.7712265,-97.7505807,30.2663611,30.2858908,1172,107
"USA. Colorado. Boulder County. Boulder.","Boulder, Boulder County, Colorado, United States",-105.2747406,40.0189728,-105.30145,-105.178355,39.9569151,40.094412,7258,108
"USA. Texas. Tarrant County. Benbrook. Hillside gullies.","Hillside Drive, Benbrook, Tarrant County, Texas, United States, 76132",-97.424735,32.6894855,-97.4259641802915,-97.4232662197085,32.68834251970851,32.69104048029151,171,109
"USA. Montana. Toole County. Shelby, 8 mi W of US Rt 15,  4 mi NW of Kevin.","Shelby, Toole County, Montana, United States, 59474",-111.8561447,48.5066603,-111.9178579,-111.8236731,48.42194509999999,48.54502000000001,4894,110
"USA. Wyoming. Crook County. Moorcroft Section. Inoceramus zone.","Moorcroft, Crook County, Wyoming, United States, 82721",-104.9502538,44.2633149,-104.973554,-104.838449,44.255326,44.283893,2062,111
"USA, Wyoming, Lance Creek, Niobrara County","Lance Creek, Niobrara County, Wyoming, United States",-104.6419032,43.03246790000001,-104.7758499,-104.567895,42.99125,43.094254,9136,112
"USA. South Dakota. Fall River County. Edgemont.","Edgemont, Southwest Fall River, Fall River County, South Dakota, United States, 57735",-103.8254758,43.3010841,-103.853954,-103.8163309,43.289565,43.3073359,1016,113
"USA. South Dakota. Meade County. Sturgis.","Sturgis, Southwest Meade, Meade County, South Dakota, United States, 57785",-103.5090786,44.4097069,-103.564271,-103.363197,44.379055,44.432191,5562,114
"USA. Wyoming. Niobrara County. Lance Creek.","Lance Creek, Niobrara County, Wyoming, United States",-104.6419032,43.03246790000001,-104.7758499,-104.567895,42.99125,43.094254,9136,115
"USA. South Dakota. Fall River County. Edgemont. WSW of Edgemont. 10-2D","Edgemont, Southwest Fall River, Fall River County, South Dakota, United States, 57735",-103.8254758,43.3010841,-103.853954,-103.8163309,43.289565,43.3073359,1016,116
"USA. South Dakota. Fall River County. Edgemont. WSW of Edgemont. 10-2","Edgemont, Southwest Fall River, Fall River County, South Dakota, United States, 57735",-103.8254758,43.3010841,-103.853954,-103.8163309,43.289565,43.3073359,1016,117
"USA. Texas. Brewster County. 0.2 to 0.3 mi NE of Split Tank, 1.5 mi NE of Word Ranch house about 1 mi ENE of Split Tank, Glass Mountains, west TX. 3892128","Brewster County, Texas, United States",-103.3587288,29.6629938,-103.80068,-102.3208541,28.9713364,30.66593889999999,87866,118
"USA. Texas. Brewster County. 0.2 to 0.3 mi NE of Split Tank, 1.5 mi NE of Word Ranch house about 1 mi ENE of Split Tank, Glass Mountains, west TX. 3892128","Split Tank, Hudspeth County, Texas, United States",-105.2754834,30.999048,-105.2768810802915,-105.2741831197085,30.99767946970849,31.00037743029149,193,118
"USA, Texas, Pecos County, Glass Mountains, in arroyo, Section 27, 0.25 mi E of hill 5157.","Glass Mountains, Pecos County, Texas, United States, 79735",-103.1090536,30.4354441,-103.1104025802915,-103.1077046197085,30.4340951197085,30.4367930802915,198,119
"USA, Texas, Pecos County, Glass Mountains, in arroyo, Section 27, 0.25 mi E of hill 5157.","Arroyo, Puerto Rico, 00714",-66.058249,17.9870515,-66.0950964,-66.0198176,17.9517575,18.0406186,5522,119
"USA, Texas, Brewster County, Glass Mountains, Section 17.","Brewster County, Texas, United States",-103.3587288,29.6629938,-103.80068,-102.3208541,28.9713364,30.66593889999999,87866,120
"USA, Texas, Brewster County, Glass Mountains, Section 17.","Glass Mountains, Pecos County, Texas, United States, 79735",-103.1090536,30.4354441,-103.1104025802915,-103.1077046197085,30.4340951197085,30.4367930802915,198,120
"USA. Texas. Brewster County. East side of Hess Canyon, near its angle, Glass Mountains, west Texas.","Hess Canyon, Brewster County, Texas, United States, 79842",-103.2071162,30.3337771,-103.2084651802915,-103.2057672197085,30.3324281197085,30.3351260802915,198,121
"USA. Texas. Brewster County. East side of Hess Canyon, near its angle, Glass Mountains, west Texas.","West Texas, El Paso, El Paso County, Texas, United States, 79901",-106.4917179,31.75355119999999,-106.4930668802915,-106.4903689197085,31.75220221970849,31.75490018029149,197,121
"USA. Texas. Brewster County. East side of Hess Canyon, near its angle, Glass Mountains, west Texas.","Hess Canyon, Brewster County, Texas, United States, 79831",-103.2004472,30.4473858,-103.2017961802915,-103.1990982197085,30.4460368197085,30.4487347802915,198,121
"USA. Texas. Brewster County. East of the head of the East fork of Hess Canyon, about 0.25 miles below and southeast of hill 5767, Glass Mountains, west Texas.","Hess Canyon, Brewster County, Texas, United States, 79842",-103.2071162,30.3337771,-103.2084651802915,-103.2057672197085,30.3324281197085,30.3351260802915,198,122
"USA. Texas. Brewster County. East of the head of the East fork of Hess Canyon, about 0.25 miles below and southeast of hill 5767, Glass Mountains, west Texas.","Hess Canyon, Brewster County, Texas, United States, 79831",-103.2004472,30.4473858,-103.2017961802915,-103.1990982197085,30.4460368197085,30.4487347802915,198,122
"USA. Texas. Brewster County. East of the head of the East fork of Hess Canyon, about 0.25 miles below and southeast of hill 5767, Glass Mountains, west Texas.","West Texas, El Paso, El Paso County, Texas, United States, 79901",-106.4917179,31.75355119999999,-106.4930668802915,-106.4903689197085,31.75220221970849,31.75490018029149,197,122
"USA, Texas, Culberson County, Sierra Diablo, Victorio Peak section, west TX.","Sierra Diablo, Culberson County, Texas, United States, 79855",-104.9049435,31.4229024,-104.9062924802915,-104.9035945197085,31.4215534197085,31.4242513802915,197,126
"USA, Texas, Culberson County, Sierra Diablo, Victorio Peak section, west TX.","West, McLennan County, Texas, United States, 76691",-97.0909551,31.8023057,-97.1072011,-97.077309,31.78610399999999,31.8243631,2365,126
"USA, Texas, Brewster County, east base of Leonard Mountain, Glass Mountains.","Brewster County, Texas, United States",-103.3587288,29.6629938,-103.80068,-102.3208541,28.9713364,30.66593889999999,87866,124
"USA, Texas, Brewster County, Section 17, north of Leonard Mountain, Glass Mountains.","Brewster County, Texas, United States",-103.3587288,29.6629938,-103.80068,-102.3208541,28.9713364,30.66593889999999,87866,125
"USA, Texas, Culberson County, Sierra Diablo, Victorio Peak section, west TX.","Sierra Diablo, Culberson County, Texas, United States, 79855",-104.9049435,31.4229024,-104.9062924802915,-104.9035945197085,31.4215534197085,31.4242513802915,197,126
"USA, Texas, Culberson County, Sierra Diablo, Victorio Peak section, west TX.","West, McLennan County, Texas, United States, 76691",-97.0909551,31.8023057,-97.1072011,-97.077309,31.78610399999999,31.8243631,2365,126
"USA, Texas, Culberson County, Sierra Diablo, Victorio Peak section, Sierra Diablo, West Texas.","West Texas, El Paso, El Paso County, Texas, United States, 79901",-106.4917179,31.75355119999999,-106.4930668802915,-106.4903689197085,31.75220221970849,31.75490018029149,197,127
"USA, Texas, Culberson County, Sierra Diablo, Victorio Peak section, Sierra Diablo, West Texas.","Sierra Diablo, Culberson County, Texas, United States, 79855",-104.9049435,31.4229024,-104.9062924802915,-104.9035945197085,31.4215534197085,31.4242513802915,197,127
"USA. Texas. Culberson County. Victorio Peak section, Sierra Diablo, west TX. 3892476","West, McLennan County, Texas, United States, 76691",-97.0909551,31.8023057,-97.1072011,-97.077309,31.78610399999999,31.8243631,2365,128
"USA. Texas. Culberson County. Victorio Peak section, Sierra Diablo, west TX. 3892476","Sierra Diablo, Culberson County, Texas, United States, 79855",-104.9049435,31.4229024,-104.9062924802915,-104.9035945197085,31.4215534197085,31.4242513802915,197,128
"USA, Texas, Culberson County, Victorio Peak section, Sierra Diablo, west TX. 3892477","Sierra Diablo, Culberson County, Texas, United States, 79855",-104.9049435,31.4229024,-104.9062924802915,-104.9035945197085,31.4215534197085,31.4242513802915,197,129
"USA, Texas, Culberson County, Victorio Peak section, Sierra Diablo, west TX. 3892477","West, McLennan County, Texas, United States, 76691",-97.0909551,31.8023057,-97.1072011,-97.077309,31.78610399999999,31.8243631,2365,129
"USA. Texas. Culberson County. Sierra Diablo. Victorio Peak section.","Sierra Diablo, Culberson County, Texas, United States, 79855",-104.9049435,31.4229024,-104.9062924802915,-104.9035945197085,31.4215534197085,31.4242513802915,197,130
"USA. Texas. Brewster County. Section 24, the side of the arroyo NE of Wolf Camp, Glass Mountains. 389293","Brewster County, Texas, United States",-103.3587288,29.6629938,-103.80068,-102.3208541,28.9713364,30.66593889999999,87866,131
"USA. Texas. Brewster County. 1 mi NW of Wolfcamp, Section 23, Glass Mountains, west TX. 389287","Brewster County, Texas, United States",-103.3587288,29.6629938,-103.80068,-102.3208541,28.9713364,30.66593889999999,87866,132
"USA. Texas. Brewster County. 1 mi NW of Wolfcamp, Section 23, Glass Mountains, west TX. 389287","Glass Mountains, Pecos County, Texas, United States, 79735",-103.1090536,30.4354441,-103.1104025802915,-103.1077046197085,30.4340951197085,30.4367930802915,198,132
"USA, Texas, Brewster County, Glass Mountains, near the top of Hess, Section 17, west Texas.","West Texas, El Paso, El Paso County, Texas, United States, 79901",-106.4917179,31.75355119999999,-106.4930668802915,-106.4903689197085,31.75220221970849,31.75490018029149,197,133
"USA, Texas, Brewster County, Glass Mountains, near the top of Hess, Section 17, west Texas.","Brewster County, Texas, United States",-103.3587288,29.6629938,-103.80068,-102.3208541,28.9713364,30.66593889999999,87866,133
"USA. Texas. Brewster County. North side of Hess Canyon, east of hill 5543, Glass Mountains, west Texas.","Hess Canyon, Brewster County, Texas, United States, 79842",-103.2071162,30.3337771,-103.2084651802915,-103.2057672197085,30.3324281197085,30.3351260802915,198,134
"USA. Texas. Brewster County. North side of Hess Canyon, east of hill 5543, Glass Mountains, west Texas.","Hess Canyon, Brewster County, Texas, United States, 79831",-103.2004472,30.4473858,-103.2017961802915,-103.1990982197085,30.4460368197085,30.4487347802915,198,134
"USA. Texas. Brewster County. North side of Hess Canyon, east of hill 5543, Glass Mountains, west Texas.","West Texas, El Paso, El Paso County, Texas, United States, 79901",-106.4917179,31.75355119999999,-106.4930668802915,-106.4903689197085,31.75220221970849,31.75490018029149,197,134
"USA. Texas. Hudspeth County. Sierra Diablo. Victorio Peak section, west TX.  3892496","Hudspeth County, Texas, United States",-105.5943388,31.5707433,-105.9980119,-104.9071221,30.6292941,32.002377,80790,135
"USA. Texas. Hudspeth County. Sierra Diablo. Victorio Peak section, west TX.  3892496","West, McLennan County, Texas, United States, 76691",-97.0909551,31.8023057,-97.1072011,-97.077309,31.78610399999999,31.8243631,2365,135
"USA. Texas. Brewster County. East side of Hess Canyon, near northernmost outcrop, Glass Mountains, west Texas.","Hess Canyon, Brewster County, Texas, United States, 79842",-103.2071162,30.3337771,-103.2084651802915,-103.2057672197085,30.3324281197085,30.3351260802915,198,136
"USA. Texas. Brewster County. East side of Hess Canyon, near northernmost outcrop, Glass Mountains, west Texas.","West Texas, El Paso, El Paso County, Texas, United States, 79901",-106.4917179,31.75355119999999,-106.4930668802915,-106.4903689197085,31.75220221970849,31.75490018029149,197,136
"USA. Texas. Brewster County. East side of Hess Canyon, near northernmost outcrop, Glass Mountains, west Texas.","Hess Canyon, Brewster County, Texas, United States, 79831",-103.2004472,30.4473858,-103.2017961802915,-103.1990982197085,30.4460368197085,30.4487347802915,198,136
"USA. Texas. Brewster County. 1.5 mi NW of Word Ranch house, 0.5 mi W of hill 5507, Hess Canyon, Glass Mountains, west TX.","Brewster County, Texas, United States",-103.3587288,29.6629938,-103.80068,-102.3208541,28.9713364,30.66593889999999,87866,137
"USA. Texas. Brewster County. North of Word Ranch, east and west of Comanche outlier for a short distance, Glass Mountains, west Texas.","Brewster County, Texas, United States",-103.3587288,29.6629938,-103.80068,-102.3208541,28.9713364,30.66593889999999,87866,138
"USA. Texas. Brewster County. North of Word Ranch, east and west of Comanche outlier for a short distance, Glass Mountains, west Texas.","Comanche, Comanche County, Texas, United States, 76442",-98.60365809999999,31.8973693,-98.63323510000001,-98.581239,31.885024,31.9260731,3115,138
"USA. Texas. Brewster County. North of Word Ranch, east and west of Comanche outlier for a short distance, Glass Mountains, west Texas.","West Texas, El Paso, El Paso County, Texas, United States, 79901",-106.4917179,31.75355119999999,-106.4930668802915,-106.4903689197085,31.75220221970849,31.75490018029149,197,138
"USA, Texas, Brewster County, Section 23, east of Hess Ranch horst, Glass Mountains.","Brewster County, Texas, United States",-103.3587288,29.6629938,-103.80068,-102.3208541,28.9713364,30.66593889999999,87866,139
"USA. Texas. Brewster County, east of Comanche outlier north of Word Ranch house, Pecos Counties, Glass Mountains, west Texas. 3892150","Brewster County, Texas, United States",-103.3587288,29.6629938,-103.80068,-102.3208541,28.9713364,30.66593889999999,87866,140
"USA. Texas. Brewster County, east of Comanche outlier north of Word Ranch house, Pecos Counties, Glass Mountains, west Texas. 3892150","Comanche, Comanche County, Texas, United States, 76442",-98.60365809999999,31.8973693,-98.63323510000001,-98.581239,31.885024,31.9260731,3115,140
"USA. Texas. Brewster County, east of Comanche outlier north of Word Ranch house, Pecos Counties, Glass Mountains, west Texas. 3892150","West Texas, El Paso, El Paso County, Texas, United States, 79901",-106.4917179,31.75355119999999,-106.4930668802915,-106.4903689197085,31.75220221970849,31.75490018029149,197,140
"USA. Texas. Brewster County, east of Comanche outlier north of Word Ranch house, Pecos Counties, Glass Mountains, west Texas. 3892150","Pecos County, Texas, United States",-102.6216211,30.8253214,-103.585084,-101.768377,30.052808,31.3713061,101444,140
"USA. Texas. Brewster County, N of Word Ranch, Glass Mountains.","Brewster County, Texas, United States",-103.3587288,29.6629938,-103.80068,-102.3208541,28.9713364,30.66593889999999,87866,141
"USA, Texas, Brewster County, near Split Tank, Glass Mountains, west TX.","Brewster County, Texas, United States",-103.3587288,29.6629938,-103.80068,-102.3208541,28.9713364,30.66593889999999,87866,142
"USA, Texas, Brewster County, near Split Tank, Glass Mountains, west TX.","West, McLennan County, Texas, United States, 76691",-97.0909551,31.8023057,-97.1072011,-97.077309,31.78610399999999,31.8243631,2365,142
"USA. Texas. Brewster County. Hess or Leonard, Section 17, Leonard Mountain, Glass Mountains, west Texas.","West Texas, El Paso, El Paso County, Texas, United States, 79901",-106.4917179,31.75355119999999,-106.4930668802915,-106.4903689197085,31.75220221970849,31.75490018029149,197,143
"USA. Texas. Brewster County. Hess or Leonard, Section 17, Leonard Mountain, Glass Mountains, west Texas.","Leonard, Fannin County, Texas, United States",-96.2474785,33.3795549,-96.311531,-96.184675,33.3684419,33.439977,6087,143
"USA. Texas. Brewster County. Hess or Leonard, Section 17, Leonard Mountain, Glass Mountains, west Texas.","Brewster County, Texas, United States",-103.3587288,29.6629938,-103.80068,-102.3208541,28.9713364,30.66593889999999,87866,143
"USA. Texas. Brewster County. SW of Split Tank, 1.5 mi NE of Word Ranch house, Glass Mountains.","Brewster County, Texas, United States",-103.3587288,29.6629938,-103.80068,-102.3208541,28.9713364,30.66593889999999,87866,144
"USA. Texas. Brewster County. Section 24, 1 mi W of Word Ranch house, Glass Mountains, west TX. 3892235","West, McLennan County, Texas, United States, 76691",-97.0909551,31.8023057,-97.1072011,-97.077309,31.78610399999999,31.8243631,2365,145
"USA. Texas. Brewster County. Section 24, 1 mi W of Word Ranch house, Glass Mountains, west TX. 3892235","Brewster County, Texas, United States",-103.3587288,29.6629938,-103.80068,-102.3208541,28.9713364,30.66593889999999,87866,145
"USA, Texas, Brewster County, top of Cathedral Mountain, east end, Glass Mountains, west Texas","Cathedral Mountain, Brewster County, Texas, United States, 79831",-103.3465674,30.3096059,-103.3479163802915,-103.3452184197085,30.3082569197085,30.3109548802915,198,146
"USA, Texas, Brewster County, top of Cathedral Mountain, east end, Glass Mountains, west Texas","West Texas, El Paso, El Paso County, Texas, United States, 79901",-106.4917179,31.75355119999999,-106.4930668802915,-106.4903689197085,31.75220221970849,31.75490018029149,197,146
"USA. Texas. Brewster County. SW of Comanche outlier, N of Word Ranch house, Glass Mountains.","Comanche, Comanche County, Texas, United States, 76442",-98.60365809999999,31.8973693,-98.63323510000001,-98.581239,31.885024,31.9260731,3115,147
"USA. Texas. Brewster County. SW of Comanche outlier, N of Word Ranch house, Glass Mountains.","Brewster County, Texas, United States",-103.3587288,29.6629938,-103.80068,-102.3208541,28.9713364,30.66593889999999,87866,147
"USA, Texas, Culberson County, Sierra Diablo, Victorio Peak section, west Texas.","Sierra Diablo, Culberson County, Texas, United States, 79855",-104.9049435,31.4229024,-104.9062924802915,-104.9035945197085,31.4215534197085,31.4242513802915,197,148
"USA, Texas, Culberson County, Sierra Diablo, Victorio Peak section, west Texas.","West Texas, El Paso, El Paso County, Texas, United States, 79901",-106.4917179,31.75355119999999,-106.4930668802915,-106.4903689197085,31.75220221970849,31.75490018029149,197,148
"USA, Texas, Brewster County, 1 mi W of Word Ranch, Glass Mountains.","Brewster County, Texas, United States",-103.3587288,29.6629938,-103.80068,-102.3208541,28.9713364,30.66593889999999,87866,149
"USA. Texas. Brewster County. Section 24, 0.8 mi W of Word Ranch, Glass Mountains, west TX.","Brewster County, Texas, United States",-103.3587288,29.6629938,-103.80068,-102.3208541,28.9713364,30.66593889999999,87866,150
"USA. Texas. Pecos County, north of hill 4627, northeast corner of Hess Canyon quadrangle, Glass Mountains, west Texas.","Northeastern United States, United States",-74.21793260000001,43.2994285,-80.51989499999999,-66.8850751,38.788657,47.459686,728767,151
"USA. Texas. Pecos County, north of hill 4627, northeast corner of Hess Canyon quadrangle, Glass Mountains, west Texas.","West Texas, El Paso, El Paso County, Texas, United States, 79901",-106.4917179,31.75355119999999,-106.4930668802915,-106.4903689197085,31.75220221970849,31.75490018029149,197,151
"USA. Texas. Pecos County, north of hill 4627, northeast corner of Hess Canyon quadrangle, Glass Mountains, west Texas.","Glass Mountains, Pecos County, Texas, United States, 79735",-103.1090536,30.4354441,-103.1104025802915,-103.1077046197085,30.4340951197085,30.4367930802915,198,151
"USA, Texas, Culberson County, Sierra Diablo, Victorio Peak section, west TX. 3892474","West, McLennan County, Texas, United States, 76691",-97.0909551,31.8023057,-97.1072011,-97.077309,31.78610399999999,31.8243631,2365,152
"USA, Texas, Culberson County, Sierra Diablo, Victorio Peak section, west TX. 3892474","Sierra Diablo, Culberson County, Texas, United States, 79855",-104.9049435,31.4229024,-104.9062924802915,-104.9035945197085,31.4215534197085,31.4242513802915,197,152
"USA. Texas. Brewster County. 1 mi NW of Wolfcamp, Section 23, Glass Mountains, west TX.","Brewster County, Texas, United States",-103.3587288,29.6629938,-103.80068,-102.3208541,28.9713364,30.66593889999999,87866,153
"USA. Texas. Brewster County. 1 mi NW of Wolfcamp, Section 23, Glass Mountains, west TX.","Glass Mountains, Pecos County, Texas, United States, 79735",-103.1090536,30.4354441,-103.1104025802915,-103.1077046197085,30.4340951197085,30.4367930802915,198,153
"USA, Texas, Brewster County, 1 mi NW of Wolfcamp, Section 23, Glass Mountains, west Texas.","Brewster County, Texas, United States",-103.3587288,29.6629938,-103.80068,-102.3208541,28.9713364,30.66593889999999,87866,154
"USA, Texas, Brewster County, 1 mi NW of Wolfcamp, Section 23, Glass Mountains, west Texas.","West Texas, El Paso, El Paso County, Texas, United States, 79901",-106.4917179,31.75355119999999,-106.4930668802915,-106.4903689197085,31.75220221970849,31.75490018029149,197,154
"USA, Texas, Brewster County, 1 mi NW of Wolfcamp, Section 23, Glass Mountains, west Texas.","Glass Mountains, Pecos County, Texas, United States, 79735",-103.1090536,30.4354441,-103.1104025802915,-103.1077046197085,30.4340951197085,30.4367930802915,198,154
"USA, Texas, Culberson County, Sierra Diablo, Victorio Peak section.","Sierra Diablo, Culberson County, Texas, United States, 79855",-104.9049435,31.4229024,-104.9062924802915,-104.9035945197085,31.4215534197085,31.4242513802915,197,155
"USA. Kansas. Rooks County. Stockton. About 14 mi NW of Stockton, in NW corner of Rooks County.","Stockton, Rooks County, Kansas, United States, 67669",-99.2650967,39.4380656,-99.297089,-99.2587069,39.36448900000001,39.451174,1556,156
"USA. Kansas. Rooks County. Stockton. About 14 mi NW of Stockton, in NW corner of Rooks County.","Northwest Washington, Washington, 7, District of Columbia, United States",-77.04493269999999,38.9380912,-77.1197502,-77.0060597,38.8891955,38.9955566,7214,156
"USA. Nebraska. Sarpy County. Meadow. Kiewitz Quarry, west of Meadow.","Sarpy County, Nebraska, United States",-96.19513200000002,41.0744042,-96.339805,-95.841611,40.994308,41.190991,15071,157
"USA, Nebraska, Sarpy County, Meadow, Kiewitz Quarry, 234","Meadow Lane, La Vista, La Vista Precinct, Sarpy County, Nebraska, United States, 68128",-96.0291432,41.1775964,-96.0308654,-96.0261939,41.1768894197085,41.17958738029149,164,158
"USA. Nebraska. Sarpy County. Meadow. Kiewitz Quarry, just west of Meadow.","Sarpy County, Nebraska, United States",-96.19513200000002,41.0744042,-96.339805,-95.841611,40.994308,41.190991,15071,176
"USA. Nebraska. Sarpy County. Old Green Quarries. W end of the Old Green Quarries. N 4.3, 223","Greene Avenue, Bellevue, Bellevue Precinct, Sarpy County, Nebraska, United States",-95.9716636,41.1796661,-95.99284229999999,-95.9502187,41.17797119999999,41.1817117,1787,160
"USA, Nebraska, Sarpy County, Meadow, Kiewitz Quarry, just west of Meadow Station.","Sarpy County, Nebraska, United States",-96.19513200000002,41.0744042,-96.339805,-95.841611,40.994308,41.190991,15071,161
"USA, Nebraska, Sarpy County, Meadow, Kiewitz Quarry, west of Meadow.","Sarpy County, Nebraska, United States",-96.19513200000002,41.0744042,-96.339805,-95.841611,40.994308,41.190991,15071,162
"USA. Nebraska. Sarpy County. Meadow. Kiewitz Quarry.","Sarpy County, Nebraska, United States",-96.19513200000002,41.0744042,-96.339805,-95.841611,40.994308,41.190991,15071,169
"USA, Nebraska, Sarpy County, Meadow, Kiewitz Quarry","Sarpy County, Nebraska, United States",-96.19513200000002,41.0744042,-96.339805,-95.841611,40.994308,41.190991,15071,164
"USA, Nebraska, Sarpy County, Meadow Station, Kiewitz Quarry","Meadow Lane, La Vista, La Vista Precinct, Sarpy County, Nebraska, United States, 68128",-96.0291432,41.1775964,-96.0308654,-96.0261939,41.1768894197085,41.17958738029149,164,165
"USA. Nebraska. Sarpy County. Kiewitz Quarry, W of Meadow.","Sarpy County, Nebraska, United States",-96.19513200000002,41.0744042,-96.339805,-95.841611,40.994308,41.190991,15071,166
"USA. Nebraska. Sarpy County. Meadow. Kiewitz Quarry, just west of Meadow.","Sarpy County, Nebraska, United States",-96.19513200000002,41.0744042,-96.339805,-95.841611,40.994308,41.190991,15071,176
"USA, Nebraska, Sarpy County, Kiewitz Quarry, west of Meadow.","Sarpy County, Nebraska, United States",-96.19513200000002,41.0744042,-96.339805,-95.841611,40.994308,41.190991,15071,168
"USA. Nebraska. Sarpy County. Meadow. Kiewitz Quarry.","Sarpy County, Nebraska, United States",-96.19513200000002,41.0744042,-96.339805,-95.841611,40.994308,41.190991,15071,169
"USA. Nebraska. Sarpy County. La Platte. Old Green Quarries, between South Bend and Louisville, north of La Platte.","La Platte, LaPlatte I Precinct, Sarpy County, Nebraska, United States, 68123",-95.92362229999999,41.0747212,-95.92826009999999,-95.921234,41.063366,41.0796779,586,170
"USA. Nebraska. Sarpy County. La Platte. Old Green Quarries, between South Bend and Louisville, north of La Platte.","Louisville, Jefferson County, Kentucky, United States",-85.7663724,38.2468618,-85.947104,-85.404899,37.99721,38.380239,31923,170
"USA. Nebraska. Sarpy County. La Platte. Old Green Quarries, between South Bend and Louisville, north of La Platte.","South Bend Precinct, Cass County, Nebraska, United States",-96.2907139,40.998915,-96.350022,-96.196834,40.957036,41.0450041,6822,170
"USA. Nebraska. Sarpy County. West end of the Old Green Quarries near La Platte.","La Platte, LaPlatte I Precinct, Sarpy County, Nebraska, United States, 68123",-95.92362229999999,41.0747212,-95.92826009999999,-95.921234,41.063366,41.0796779,586,171
"USA. Nebraska. Sarpy County. Old Green Quarries near La Platte.","La Platte, LaPlatte I Precinct, Sarpy County, Nebraska, United States, 68123",-95.92362229999999,41.0747212,-95.92826009999999,-95.921234,41.063366,41.0796779,586,172
"USA, Nebraska, Sarpy County, Meadow, Kiewitz Quarry, just west of Meadow","Sarpy County, Nebraska, United States",-96.19513200000002,41.0744042,-96.339805,-95.841611,40.994308,41.190991,15071,173
"USA. Nebraska. Sarpy County. Kiewitz Quarry, just W of Meadow.","Sarpy County, Nebraska, United States",-96.19513200000002,41.0744042,-96.339805,-95.841611,40.994308,41.190991,15071,174
"USA. Nebraska. Sarpy County. Kiewitz Quarry, west of Meadow.","Sarpy County, Nebraska, United States",-96.19513200000002,41.0744042,-96.339805,-95.841611,40.994308,41.190991,15071,175
"USA. Nebraska. Sarpy County. Meadow. Kiewitz Quarry, just west of Meadow.","Sarpy County, Nebraska, United States",-96.19513200000002,41.0744042,-96.339805,-95.841611,40.994308,41.190991,15071,176
"India. Punjab. Jhelum District. 0.75 mi SW of Tatrot village 43H5 quadrant A2.","India",78.96288,20.593684,68.1097,97.39535869999999,6.4626999,35.6733149,1953528,177
"India. Punjab. Jhelum District. 0.75 mi SW of Tatrot village 43H5 quadrant A2.","Ann Arbor, Washtenaw County, Michigan, United States",-83.7430378,42.2808256,-83.7995639,-83.6758071,42.2226789,42.3239679,7328,177
"India. Punjab. Jhelum District. 0.75 mi SW of Tatrot village 43H5 quadrant A2.","Tatrot",73.7922779,33.02409950000001,73.79169266970848,73.7943906302915,33.0226577197085,33.0253556802915,169,177
"USA. New York. Madison County. Pecksport and Red Gate Farm. Madison County","Madison County, Alabama, United States",-86.49965460000001,34.72397309999999,-86.7900559,-86.2557709,34.475633,34.9923389,37199,178
"USA. New York. Madison County. Pecksport and Red Gate Farm. Madison County","Pecksport, Eaton, Madison County, New York, United States, 13346",-75.5674021,42.8625689,-75.5687510802915,-75.5660531197085,42.8612199197085,42.8639178802915,186,178
"USA, Indiana, Howard County, Kokomo, Yeoman Stone Co. quarry, south side of Wildcat Creek, about 0.5 miles northwest of the intersection of 80 South Rd and 200 West Rd, and about 2 miles west of Kokomo.","Wildcat Creek, Harrison Township, Howard County, Indiana, United States, 46902",-86.2100621,40.4813064,-86.21131708029151,-86.2086191197085,40.4798782197085,40.4825761802915,187,179
"USA, New York, Onondaga County, Route I-81 Roadcut, south of Syracuse.","Interstate 81, Onondaga County, New York, United States",-76.1405409,43.0214003,-76.1730276,-76.1093574,42.77120029999998,43.27174450000002,27921,180
